bread_name,task_name,run_id,task_instance_id,seed,world_name,experiment_condition,baseline_name,knowledge_query_success,knowledge_query_error,knowledge_prior_task,knowledge_cutting_tool,knowledge_cutting_position,knowledge_repetition,required_prerequisite,prerequisite_source,prerequisite_satisfied_initially,autonomous_execution_feasible,feasibility_reason,robot_decision,decision_reason,assistance_requested,assistance_type,assistance_completed,task_blocked_by_prerequisite,task_resumed_after_assistance,final_success,robot_name,outcome,succeeded_arm,tool_name,phase,total_attempts,retry_count,collision_failure_count,recovery_used,recovery_success,perturbation_applied,perturbation_type,object_aabb_min_x,object_aabb_min_y,object_aabb_min_z,object_aabb_max_x,object_aabb_max_y,object_aabb_max_z,object_size_x,object_size_y,object_size_z,object_volume_aabb,target_world_x,target_world_y,target_world_z,support_surface_name,support_world_x,support_world_y,support_world_z,support_yaw_rad,support_size_x,support_size_y,support_size_z,object_world_x,object_world_y,object_world_z,object_quat_x,object_quat_y,object_quat_z,object_quat_w,object_roll_rad,object_pitch_rad,object_yaw_rad,anchor_local_x,anchor_local_y,anchor_local_z,anchor_norm_x,anchor_norm_y,anchor_norm_z,cut_normal_local_x,cut_normal_local_y,cut_normal_local_z,cut_normal_world_x,cut_normal_world_y,cut_normal_world_z,cut_normal_world_yaw_rad,technique_name,slice_thickness_m,num_cuts_x,pointer_stride,execution_time_s,failure_count,failure_reasons
bread_0001,bread_cutting,6f9f28f4-013f-481f-9eac-1215a9d2a107,bread_0001,3332187059,apartment,full_system,base_system,True,,,Knife,middle,1,,,True,True,ok,cut,primary_success,False,,False,False,False,True,pr2,success,RIGHT,knife_right,primary,1,0,0,False,False,False,,-0.20497,-0.078693,-0.046827,0.214477,0.076664,0.057223,0.419447,0.155357,0.10405,0.00678033,2.803299,2.523956,0.966814,map,0.0,0.0,0.0,0.0,,,,2.803299,2.523956,0.966814,0.0,0.0,-0.852189,0.523235,0.0,-0.0,-2.040308,-0.17997,-0.001015,-0.041624,0.059602,0.5,0.05,1.0,0.0,0.0,-0.452451,-0.891789,0.0,-2.040308,saw,0.03,4,13,89.6797,0,
bread_0002,bread_cutting,6f9f28f4-013f-481f-9eac-1215a9d2a107,bread_0002,3332187059,apartment,full_system,base_system,True,,,Knife,middle,1,,,True,True,ok,cut,primary_success,False,,False,False,False,True,pr2,success,RIGHT,knife_right,primary,1,0,0,False,False,False,,-0.128106,-0.049183,-0.029267,0.134048,0.047915,0.035765,0.262154,0.097098,0.065031,0.00165535,2.567708,2.874078,0.966814,map,0.0,0.0,0.0,0.0,,,,2.567708,2.874078,0.966814,0.0,0.0,-0.170135,0.985421,0.0,-0.0,-0.341933,-0.103106,-0.000634,-0.026015,0.095364,0.5,0.05,1.0,0.0,0.0,0.942108,-0.335309,0.0,-0.341933,saw,0.03,4,13,53.8547,0,
bread_0003,bread_cutting,6f9f28f4-013f-481f-9eac-1215a9d2a107,bread_0003,3332187059,apartment,full_system,base_system,True,,,Knife,middle,1,,,True,True,ok,cut,primary_success,False,,False,False,False,True,pr2,success,RIGHT,knife_right,primary,1,0,0,False,False,False,,-0.20497,-0.078693,-0.046827,0.214477,0.076664,0.057223,0.419447,0.155357,0.10405,0.00678033,2.802473,1.830656,0.966814,map,0.0,0.0,0.0,0.0,,,,2.802473,1.830656,0.966814,0.0,0.0,0.881237,-0.472674,0.0,-0.0,-2.156946,-0.17997,-0.001015,-0.041624,0.059602,0.5,0.05,1.0,0.0,0.0,-0.553158,-0.833077,0.0,-2.156946,saw,0.03,4,13,104.9333,0,
bread_0004,bread_cutting,6f9f28f4-013f-481f-9eac-1215a9d2a107,bread_0004,3332187059,apartment,full_system,base_system,True,,,Knife,middle,1,,,True,True,ok,cut,primary_success,False,,False,False,False,True,pr2,success,RIGHT,knife_right,primary,1,0,0,False,False,False,,-0.128106,-0.049183,-0.029267,0.134048,0.047915,0.035765,0.262154,0.097098,0.065031,0.00165535,2.956285,3.41059,0.966814,map,0.0,0.0,0.0,0.0,,,,2.956285,3.41059,0.966814,0.0,0.0,0.76607,0.642757,0.0,-0.0,1.745409,-0.103106,-0.000634,-0.026015,0.095364,0.5,0.05,1.0,0.0,0.0,-0.173727,0.984794,0.0,1.745409,saw,0.03,4,13,37.2456,0,
bread_0005,bread_cutting,6f9f28f4-013f-481f-9eac-1215a9d2a107,bread_0005,3332187059,apartment,full_system,base_system,True,,,Knife,middle,1,,,True,True,ok,cut,primary_success,False,,False,False,False,True,pr2,success,RIGHT,knife_right,primary,1,0,0,False,False,False,,-0.179349,-0.068857,-0.040973,0.187667,0.067081,0.05007,0.367016,0.135937,0.091044,0.00454229,2.870424,3.777373,0.966814,map,0.0,0.0,0.0,0.0,,,,2.870424,3.777373,0.966814,0.0,0.0,0.893243,0.449575,0.0,-0.0,2.209014,-0.154349,-0.000888,-0.036421,0.068117,0.5,0.05,1.0,0.0,0.0,-0.595765,0.803159,0.0,2.209014,saw,0.03,4,13,79.0706,0,
bread_0006,bread_cutting,6f9f28f4-013f-481f-9eac-1215a9d2a107,bread_0006,3332187059,apartment,full_system,base_system,True,,,Knife,middle,1,,,True,True,ok,cut,primary_success,False,,False,False,False,True,pr2,success,RIGHT,knife_right,primary,1,0,0,False,False,False,,-0.153728,-0.05902,-0.03512,0.160858,0.057498,0.042917,0.314585,0.116518,0.078038,0.00286045,2.571921,3.351096,0.966814,map,0.0,0.0,0.0,0.0,,,,2.571921,3.351096,0.966814,0.0,0.0,0.95801,-0.286736,0.0,-0.0,-2.559957,-0.128728,-0.000761,-0.031218,0.07947,0.5,0.05,1.0,0.0,0.0,-0.835565,-0.549391,0.0,-2.559957,saw,0.03,4,13,91.0649,0,
bread_0007,bread_cutting,6f9f28f4-013f-481f-9eac-1215a9d2a107,bread_0007,3332187059,apartment,full_system,base_system,True,,,Knife,middle,1,,,True,True,ok,cut,primary_success,False,,False,False,False,True,pr2,success,RIGHT,knife_right,primary,1,0,0,False,False,False,,-0.153728,-0.05902,-0.03512,0.160858,0.057498,0.042917,0.314585,0.116518,0.078038,0.00286045,2.882112,3.032777,0.966814,map,0.0,0.0,0.0,0.0,,,,2.882112,3.032777,0.966814,0.0,0.0,-0.12057,0.992705,0.0,-0.0,-0.241729,-0.128728,-0.000761,-0.031218,0.07947,0.5,0.05,1.0,0.0,0.0,0.970926,-0.239381,0.0,-0.241729,saw,0.03,4,13,29.0777,0,
bread_0008,bread_cutting,6f9f28f4-013f-481f-9eac-1215a9d2a107,bread_0008,3332187059,apartment,full_system,base_system,True,,,Knife,middle,1,,,True,True,ok,cut,primary_success,False,,False,False,False,True,pr2,success,RIGHT,knife_right,primary,1,0,0,False,False,False,,-0.153728,-0.05902,-0.03512,0.160858,0.057498,0.042917,0.314585,0.116518,0.078038,0.00286045,2.606689,1.419648,0.966814,map,0.0,0.0,0.0,0.0,,,,2.606689,1.419648,0.966814,0.0,0.0,0.429138,0.903239,0.0,-0.0,0.887076,-0.128728,-0.000761,-0.031218,0.07947,0.5,0.05,1.0,0.0,0.0,0.631682,0.775228,0.0,0.887076,saw,0.03,4,13,25.5517,0,
bread_0009,bread_cutting,6f9f28f4-013f-481f-9eac-1215a9d2a107,bread_0009,3332187059,apartment,full_system,base_system,True,,,Knife,middle,1,,,True,True,ok,cut,primary_success,False,,False,False,False,True,pr2,success,RIGHT,knife_right,primary,1,0,0,False,False,False,,-0.128106,-0.049183,-0.029267,0.134048,0.047915,0.035765,0.262154,0.097098,0.065031,0.00165535,2.966942,1.374511,0.966814,map,0.0,0.0,0.0,0.0,,,,2.966942,1.374511,0.966814,0.0,0.0,0.689864,0.723939,0.0,-0.0,1.522603,-0.103106,-0.000634,-0.026015,0.095364,0.5,0.05,1.0,0.0,0.0,0.048174,0.998839,0.0,1.522603,saw,0.03,4,13,32.5362,0,
bread_0010,bread_cutting,6f9f28f4-013f-481f-9eac-1215a9d2a107,bread_0010,3332187059,apartment,full_system,base_system,True,,,Knife,middle,1,,,True,True,ok,cut,primary_success,False,,False,False,False,True,pr2,success,RIGHT,knife_right,primary,1,0,0,False,False,False,,-0.128106,-0.049183,-0.029267,0.134048,0.047915,0.035765,0.262154,0.097098,0.065031,0.00165535,2.572469,2.183963,0.966814,map,0.0,0.0,0.0,0.0,,,,2.572469,2.183963,0.966814,0.0,0.0,0.882366,-0.470563,0.0,-0.0,-2.161735,-0.103106,-0.000634,-0.026015,0.095364,0.5,0.05,1.0,0.0,0.0,-0.557141,-0.830418,0.0,-2.161735,saw,0.03,4,13,155.3649,0,
bread_0011,bread_cutting,6f9f28f4-013f-481f-9eac-1215a9d2a107,bread_0011,3332187059,apartment,full_system,base_system,True,,,Knife,middle,1,,,True,True,ok,cut,primary_success,False,,False,False,False,True,pr2,success,RIGHT,knife_right,primary,1,0,0,False,False,False,,-0.128106,-0.049183,-0.029267,0.134048,0.047915,0.035765,0.262154,0.097098,0.065031,0.00165535,2.550281,3.987708,0.966814,map,0.0,0.0,0.0,0.0,,,,2.550281,3.987708,0.966814,0.0,0.0,0.991888,-0.127112,0.0,-0.0,-2.886678,-0.103106,-0.000634,-0.026015,0.095364,0.5,0.05,1.0,0.0,0.0,-0.967685,-0.252163,0.0,-2.886678,saw,0.03,4,13,24.0209,0,
bread_0012,bread_cutting,6f9f28f4-013f-481f-9eac-1215a9d2a107,bread_0012,3332187059,apartment,full_system,base_system,True,,,Knife,middle,1,,,True,True,ok,cut,primary_success,False,,False,False,False,True,pr2,success,RIGHT,knife_right,primary,1,0,0,False,False,False,,-0.153728,-0.05902,-0.03512,0.160858,0.057498,0.042917,0.314585,0.116518,0.078038,0.00286045,0.276713,3.111852,0.9405,map,0.0,0.0,0.0,0.0,,,,0.276713,3.111852,0.9405,0.0,0.0,-0.023381,0.999727,0.0,-0.0,-0.046766,-0.128728,-0.000761,-0.031218,0.07947,0.5,0.05,1.0,0.0,0.0,0.998907,-0.046749,0.0,-0.046766,saw,0.03,4,13,60.2533,0,
bread_0013,bread_cutting,6f9f28f4-013f-481f-9eac-1215a9d2a107,bread_0013,3332187059,apartment,full_system,base_system,True,,,Knife,middle,1,,,True,True,ok,cut,primary_success,False,,False,False,False,True,pr2,success,RIGHT,knife_right,primary,1,0,0,False,False,False,,-0.128106,-0.049183,-0.029267,0.134048,0.047915,0.035765,0.262154,0.097098,0.065031,0.00165535,0.242682,3.526508,0.9405,map,0.0,0.0,0.0,0.0,,,,0.242682,3.526508,0.9405,0.0,0.0,-0.625953,0.77986,0.0,-0.0,-1.352707,-0.103106,-0.000634,-0.026015,0.095364,0.5,0.05,1.0,0.0,0.0,0.216365,-0.976313,0.0,-1.352707,saw,0.03,4,13,58.923,0,
bread_0014,bread_cutting,6f9f28f4-013f-481f-9eac-1215a9d2a107,bread_0014,3332187059,apartment,full_system,base_system,True,,,Knife,middle,1,,,True,True,ok,cut,primary_success,False,,False,False,False,True,pr2,success,RIGHT,knife_right,primary,1,0,0,False,False,False,,-0.179349,-0.068857,-0.040973,0.187667,0.067081,0.05007,0.367016,0.135937,0.091044,0.00454229,5.006005,3.588832,0.742643,map,0.0,0.0,0.0,0.0,,,,5.006005,3.588832,0.742643,0.0,0.0,-0.697805,0.716288,0.0,-0.0,-1.544657,-0.154349,-0.000888,-0.036421,0.068117,0.5,0.05,1.0,0.0,0.0,0.026137,-0.999658,0.0,-1.544657,saw,0.03,4,13,16.6462,0,
bread_0015,bread_cutting,6f9f28f4-013f-481f-9eac-1215a9d2a107,bread_0015,3332187059,apartment,full_system,base_system,True,,,Knife,middle,1,,,True,True,ok,cut,primary_success,False,,False,False,False,True,pr2,success,RIGHT,knife_right,primary,1,0,0,False,False,False,,-0.179349,-0.068857,-0.040973,0.187667,0.067081,0.05007,0.367016,0.135937,0.091044,0.00454229,4.952011,4.289157,0.742643,map,0.0,0.0,0.0,0.0,,,,4.952011,4.289157,0.742643,0.0,0.0,0.438811,0.898579,0.0,-0.0,0.908551,-0.154349,-0.000888,-0.036421,0.068117,0.5,0.05,1.0,0.0,0.0,0.614889,0.788613,0.0,0.908551,saw,0.03,4,13,96.6841,0,
bread_0016,bread_cutting,6f9f28f4-013f-481f-9eac-1215a9d2a107,bread_0016,3332187059,apartment,full_system,base_system,True,,,Knife,middle,1,,,True,True,ok,cut,primary_success,False,,False,False,False,True,pr2,success,RIGHT,knife_right,primary,1,0,0,False,False,False,,-0.128106,-0.049183,-0.029267,0.134048,0.047915,0.035765,0.262154,0.097098,0.065031,0.00165535,4.846526,3.942668,0.742643,map,0.0,0.0,0.0,0.0,,,,4.846526,3.942668,0.742643,0.0,0.0,0.99802,0.062898,0.0,-0.0,3.015714,-0.103106,-0.000634,-0.026015,0.095364,0.5,0.05,1.0,0.0,0.0,-0.992088,0.125546,0.0,3.015714,saw,0.03,4,13,24.1761,0,
bread_0017,bread_cutting,6f9f28f4-013f-481f-9eac-1215a9d2a107,bread_0017,3332187059,apartment,full_system,base_system,True,,,Knife,middle,1,,,True,True,ok,cut,primary_success,False,,False,False,False,True,pr2,success,RIGHT,knife_right,primary,1,0,0,False,False,False,,-0.128106,-0.049183,-0.029267,0.134048,0.047915,0.035765,0.262154,0.097098,0.065031,0.00165535,5.134298,3.951062,0.742643,map,0.0,0.0,0.0,0.0,,,,5.134298,3.951062,0.742643,0.0,0.0,0.983029,-0.183453,0.0,-0.0,-2.772597,-0.103106,-0.000634,-0.026015,0.095364,0.5,0.05,1.0,0.0,0.0,-0.93269,-0.360679,0.0,-2.772597,saw,0.03,4,13,13.2129,0,
bread_0001,bread_cutting,77ef99c6-1b28-44c3-8837-689ecbd25fc9,bread_0001,2986113688,apartment,full_system,base_system,True,,,Knife,middle,1,,,True,True,collision_or_motion_failure,task_failed,all_cut_attempts_failed,False,,False,False,False,False,armar7,failed,,knife_left,primary,2,1,2,True,False,False,,-0.179349,-0.068857,-0.040973,0.187667,0.067081,0.05007,0.367016,0.135937,0.091044,0.00454229,2.795145,1.710348,0.966814,map,0.0,0.0,0.0,0.0,,,,2.795145,1.710348,0.966814,0.0,0.0,0.942489,-0.334238,0.0,-0.0,-2.46,-0.154349,-0.000888,-0.036421,0.068117,0.5,0.05,1.0,0.0,0.0,-0.77657,-0.630031,0.0,-2.46,saw,0.03,4,13,49.3144,2,"RIGHT primary -> CollisionError (reported as timeout): Motion stalled while waiting for end of motion after 400 ticks in CuttingAction (status=wiggle, max link displacement 0.00487m over 25 ticks). | LEFT primary -> CollisionError (reported as timeout): Motion stalled while waiting for end of motion after 400 ticks in CuttingAction (status=wiggle, max link displacement 0.00304m over 25 ticks)."
bread_0002,bread_cutting,77ef99c6-1b28-44c3-8837-689ecbd25fc9,bread_0002,2986113688,apartment,full_system,base_system,True,,,Knife,middle,1,,,True,True,collision_or_motion_failure,task_failed,all_cut_attempts_failed,False,,False,False,False,False,armar7,failed,,knife_left,primary,2,1,2,True,False,False,,-0.128106,-0.049183,-0.029267,0.134048,0.047915,0.035765,0.262154,0.097098,0.065031,0.00165535,2.663195,3.740338,0.966814,map,0.0,0.0,0.0,0.0,,,,2.663195,3.740338,0.966814,0.0,0.0,0.903323,0.428962,0.0,-0.0,2.254906,-0.103106,-0.000634,-0.026015,0.095364,0.5,0.05,1.0,0.0,0.0,-0.631983,0.774982,0.0,2.254906,saw,0.03,4,13,87.9423,2,"RIGHT primary -> CollisionError (reported as timeout): Motion stalled while waiting for end of motion after 675 ticks in CuttingAction (status=wiggle, max link displacement 0.00630m over 25 ticks). | LEFT primary -> CollisionError (reported as timeout): Motion stalled while waiting for end of motion after 350 ticks in CuttingAction (status=wiggle, max link displacement 0.00265m over 25 ticks)."
bread_0003,bread_cutting,77ef99c6-1b28-44c3-8837-689ecbd25fc9,bread_0003,2986113688,apartment,full_system,base_system,True,,,Knife,middle,1,,,True,True,ok,cut,primary_success,False,,False,False,False,True,armar7,success,RIGHT,knife_right,primary,1,0,0,False,False,False,,-0.128106,-0.049183,-0.029267,0.134048,0.047915,0.035765,0.262154,0.097098,0.065031,0.00165535,2.941575,3.038297,0.966814,map,0.0,0.0,0.0,0.0,,,,2.941575,3.038297,0.966814,0.0,0.0,0.650096,0.759852,0.0,-0.0,1.415423,-0.103106,-0.000634,-0.026015,0.095364,0.5,0.05,1.0,0.0,0.0,0.154749,0.987954,0.0,1.415423,saw,0.03,4,13,73.7724,0,
bread_0004,bread_cutting,77ef99c6-1b28-44c3-8837-689ecbd25fc9,bread_0004,2986113688,apartment,full_system,base_system,True,,,Knife,middle,1,,,True,True,collision_or_motion_failure,task_failed,all_cut_attempts_failed,False,,False,False,False,False,armar7,failed,,knife_left,primary,2,1,2,True,False,False,,-0.153728,-0.05902,-0.03512,0.160858,0.057498,0.042917,0.314585,0.116518,0.078038,0.00286045,2.587394,2.213879,0.966814,map,0.0,0.0,0.0,0.0,,,,2.587394,2.213879,0.966814,0.0,0.0,0.590245,0.807225,0.0,-0.0,1.262723,-0.128728,-0.000761,-0.031218,0.07947,0.5,0.05,1.0,0.0,0.0,0.303223,0.95292,0.0,1.262723,saw,0.03,4,13,64.4682,2,"RIGHT primary -> CollisionError (reported as timeout): Motion stalled while waiting for end of motion after 325 ticks in CuttingAction (status=stagnant, max link displacement 0.00175m over 25 ticks). | LEFT primary -> CollisionError (reported as timeout): Motion stalled while waiting for end of motion after 300 ticks in CuttingAction (status=wiggle, max link displacement 0.00280m over 25 ticks)."
bread_0005,bread_cutting,77ef99c6-1b28-44c3-8837-689ecbd25fc9,bread_0005,2986113688,apartment,full_system,base_system,True,,,Knife,middle,1,,,True,True,collision_or_motion_failure,task_failed,all_cut_attempts_failed,False,,False,False,False,False,armar7,failed,,knife_left,primary,2,1,2,True,False,False,,-0.153728,-0.05902,-0.03512,0.160858,0.057498,0.042917,0.314585,0.116518,0.078038,0.00286045,2.817167,2.610146,0.966814,map,0.0,0.0,0.0,0.0,,,,2.817167,2.610146,0.966814,0.0,0.0,-0.713724,0.700428,0.0,-0.0,-1.5896,-0.128728,-0.000761,-0.031218,0.07947,0.5,0.05,1.0,0.0,0.0,-0.018803,-0.999823,0.0,-1.5896,saw,0.03,4,13,65.4228,2,"RIGHT primary -> CollisionError (reported as timeout): Motion stalled while waiting for end of motion after 325 ticks in CuttingAction (status=wiggle, max link displacement 0.00202m over 25 ticks). | LEFT primary -> CollisionError (reported as timeout): Motion stalled while waiting for end of motion after 375 ticks in CuttingAction (status=wiggle, max link displacement 0.01216m over 25 ticks)."
bread_0006,bread_cutting,77ef99c6-1b28-44c3-8837-689ecbd25fc9,bread_0006,2986113688,apartment,full_system,base_system,True,,,Knife,middle,1,,,True,True,ok,cut,primary_success,False,,False,False,False,True,armar7,success,RIGHT,knife_right,primary,1,0,0,False,False,False,,-0.128106,-0.049183,-0.029267,0.134048,0.047915,0.035765,0.262154,0.097098,0.065031,0.00165535,2.910822,3.966556,0.966814,map,0.0,0.0,0.0,0.0,,,,2.910822,3.966556,0.966814,0.0,0.0,0.87646,0.481475,0.0,-0.0,2.136919,-0.103106,-0.000634,-0.026015,0.095364,0.5,0.05,1.0,0.0,0.0,-0.536364,0.843987,0.0,2.136919,saw,0.03,4,13,32.6452,0,
bread_0007,bread_cutting,77ef99c6-1b28-44c3-8837-689ecbd25fc9,bread_0007,2986113688,apartment,full_system,base_system,True,,,Knife,middle,1,,,True,True,collision_or_motion_failure,task_failed,all_cut_attempts_failed,False,,False,False,False,False,armar7,failed,,knife_left,primary,2,1,2,True,False,False,,-0.179349,-0.068857,-0.040973,0.187667,0.067081,0.05007,0.367016,0.135937,0.091044,0.00454229,2.626165,3.323727,0.966814,map,0.0,0.0,0.0,0.0,,,,2.626165,3.323727,0.966814,0.0,0.0,0.962928,0.269759,0.0,-0.0,2.595307,-0.154349,-0.000888,-0.036421,0.068117,0.5,0.05,1.0,0.0,0.0,-0.85446,0.519517,0.0,2.595307,saw,0.03,4,13,112.2865,2,"RIGHT primary -> CollisionError (reported as timeout): Motion stalled while waiting for end of motion after 350 ticks in CuttingAction (status=wiggle, max link displacement 0.00450m over 25 ticks). | LEFT primary -> CollisionError (reported as timeout): Motion stalled while waiting for end of motion after 400 ticks in CuttingAction (status=wiggle, max link displacement 0.00788m over 25 ticks)."
bread_0008,bread_cutting,77ef99c6-1b28-44c3-8837-689ecbd25fc9,bread_0008,2986113688,apartment,full_system,base_system,True,,,Knife,middle,1,,,True,True,collision_or_motion_failure,task_failed,all_cut_attempts_failed,False,,False,False,False,False,armar7,failed,,knife_left,primary,2,1,2,True,False,False,,-0.128106,-0.049183,-0.029267,0.134048,0.047915,0.035765,0.262154,0.097098,0.065031,0.00165535,2.976336,3.434786,0.966814,map,0.0,0.0,0.0,0.0,,,,2.976336,3.434786,0.966814,0.0,0.0,0.121405,0.992603,0.0,-0.0,0.243411,-0.103106,-0.000634,-0.026015,0.095364,0.5,0.05,1.0,0.0,0.0,0.970521,0.241015,0.0,0.243411,saw,0.03,4,13,60.7432,2,"RIGHT primary -> CollisionError (reported as timeout): Motion stalled while waiting for end of motion after 325 ticks in CuttingAction (status=wiggle, max link displacement 0.00215m over 25 ticks). | LEFT primary -> CollisionError (reported as timeout): Motion stalled while waiting for end of motion after 400 ticks in CuttingAction (status=wiggle, max link displacement 0.00452m over 25 ticks)."
bread_0009,bread_cutting,77ef99c6-1b28-44c3-8837-689ecbd25fc9,bread_0009,2986113688,apartment,full_system,base_system,True,,,Knife,middle,1,,,True,True,ok,cut,primary_success,False,,False,False,False,True,armar7,success,RIGHT,knife_right,primary,1,0,0,False,False,False,,-0.128106,-0.049183,-0.029267,0.134048,0.047915,0.035765,0.262154,0.097098,0.065031,0.00165535,2.578512,2.919507,0.966814,map,0.0,0.0,0.0,0.0,,,,2.578512,2.919507,0.966814,0.0,0.0,-0.587907,0.808928,0.0,-0.0,-1.256939,-0.103106,-0.000634,-0.026015,0.095364,0.5,0.05,1.0,0.0,0.0,0.30873,-0.95115,0.0,-1.256939,saw,0.03,4,13,74.5383,0,
bread_0010,bread_cutting,77ef99c6-1b28-44c3-8837-689ecbd25fc9,bread_0010,2986113688,apartment,full_system,base_system,True,,,Knife,middle,1,,,True,True,collision_or_motion_failure,task_failed,all_cut_attempts_failed,False,,False,False,False,False,armar7,failed,,knife_left,primary,2,1,2,True,False,False,,-0.128106,-0.049183,-0.029267,0.134048,0.047915,0.035765,0.262154,0.097098,0.065031,0.00165535,2.953169,2.118906,0.966814,map,0.0,0.0,0.0,0.0,,,,2.953169,2.118906,0.966814,0.0,0.0,0.137114,0.990555,0.0,-0.0,0.275095,-0.103106,-0.000634,-0.026015,0.095364,0.5,0.05,1.0,0.0,0.0,0.962399,0.271639,0.0,0.275095,saw,0.03,4,13,50.4205,2,"RIGHT primary -> CollisionError (reported as timeout): Motion stalled while waiting for end of motion after 300 ticks in CuttingAction (status=wiggle, max link displacement 0.00394m over 25 ticks). | LEFT primary -> CollisionError (reported as timeout): Motion stalled while waiting for end of motion after 325 ticks in CuttingAction (status=wiggle, max link displacement 0.01336m over 25 ticks)."
bread_0011,bread_cutting,77ef99c6-1b28-44c3-8837-689ecbd25fc9,bread_0011,2986113688,apartment,full_system,base_system,True,,,Knife,middle,1,,,True,True,collision_or_motion_failure,task_failed,all_cut_attempts_failed,False,,False,False,False,False,armar7,failed,,knife_left,primary,2,1,2,True,False,False,,-0.128106,-0.049183,-0.029267,0.134048,0.047915,0.035765,0.262154,0.097098,0.065031,0.00165535,2.66814,1.330371,0.966814,map,0.0,0.0,0.0,0.0,,,,2.66814,1.330371,0.966814,0.0,0.0,0.988779,0.149387,0.0,-0.0,2.841696,-0.103106,-0.000634,-0.026015,0.095364,0.5,0.05,1.0,0.0,0.0,-0.955367,0.295422,0.0,2.841696,saw,0.03,4,13,38.6082,2,"RIGHT primary -> CollisionError (reported as timeout): Motion stalled while waiting for end of motion after 325 ticks in CuttingAction (status=wiggle, max link displacement 0.01162m over 25 ticks). | LEFT primary -> CollisionError (reported as timeout): Motion stalled while waiting for end of motion after 300 ticks in CuttingAction (status=wiggle, max link displacement 0.01033m over 25 ticks)."
bread_0012,bread_cutting,77ef99c6-1b28-44c3-8837-689ecbd25fc9,bread_0012,2986113688,apartment,full_system,base_system,True,,,Knife,middle,1,,,True,True,collision_or_motion_failure,task_failed,all_cut_attempts_failed,False,,False,False,False,False,armar7,failed,,knife_left,primary,2,1,2,True,False,False,,-0.179349,-0.068857,-0.040973,0.187667,0.067081,0.05007,0.367016,0.135937,0.091044,0.00454229,0.317061,3.294968,0.9405,map,0.0,0.0,0.0,0.0,,,,0.317061,3.294968,0.9405,0.0,0.0,-0.487206,0.873287,0.0,-0.0,-1.017775,-0.154349,-0.000888,-0.036421,0.068117,0.5,0.05,1.0,0.0,0.0,0.525261,-0.850941,0.0,-1.017775,saw,0.03,4,13,105.6883,2,"RIGHT primary -> CollisionError (reported as timeout): Motion stalled while waiting for end of motion after 950 ticks in CuttingAction (status=wiggle, max link displacement 0.02171m over 25 ticks). | LEFT primary -> CollisionError (reported as timeout): Motion stalled while waiting for end of motion after 975 ticks in CuttingAction (status=wiggle, max link displacement 0.00281m over 25 ticks)."
bread_0013,bread_cutting,77ef99c6-1b28-44c3-8837-689ecbd25fc9,bread_0013,2986113688,apartment,full_system,base_system,True,,,Knife,middle,1,,,True,True,collision_or_motion_failure,task_failed,all_cut_attempts_failed,False,,False,False,False,False,armar7,failed,,knife_left,primary,2,1,2,True,False,False,,-0.128106,-0.049183,-0.029267,0.134048,0.047915,0.035765,0.262154,0.097098,0.065031,0.00165535,4.937839,3.501828,0.742643,map,0.0,0.0,0.0,0.0,,,,4.937839,3.501828,0.742643,0.0,0.0,0.949373,0.314151,0.0,-0.0,2.502469,-0.103106,-0.000634,-0.026015,0.095364,0.5,0.05,1.0,0.0,0.0,-0.802619,0.596492,0.0,2.502469,saw,0.03,4,13,39.7918,2,"RIGHT primary -> CollisionError (reported as timeout): Motion stalled while waiting for end of motion after 350 ticks in CuttingAction (status=wiggle, max link displacement 0.00258m over 25 ticks). | LEFT primary -> CollisionError (reported as timeout): Motion stalled while waiting for end of motion after 375 ticks in CuttingAction (status=stagnant, max link displacement 0.00153m over 25 ticks)."
bread_0014,bread_cutting,77ef99c6-1b28-44c3-8837-689ecbd25fc9,bread_0014,2986113688,apartment,full_system,base_system,True,,,Knife,middle,1,,,True,True,collision_or_motion_failure,task_failed,all_cut_attempts_failed,False,,False,False,False,False,armar7,failed,,knife_left,primary,2,1,2,True,False,False,,-0.128106,-0.049183,-0.029267,0.134048,0.047915,0.035765,0.262154,0.097098,0.065031,0.00165535,5.142636,4.025873,0.742643,map,0.0,0.0,0.0,0.0,,,,5.142636,4.025873,0.742643,0.0,0.0,0.954314,-0.298805,0.0,-0.0,-2.534712,-0.103106,-0.000634,-0.026015,0.095364,0.5,0.05,1.0,0.0,0.0,-0.821431,-0.570308,0.0,-2.534712,saw,0.03,4,13,31.4861,2,"RIGHT primary -> CollisionError (reported as timeout): Motion stalled while waiting for end of motion after 350 ticks in CuttingAction (status=wiggle, max link displacement 0.00667m over 25 ticks). | LEFT primary -> CollisionError (reported as timeout): Motion stalled while waiting for end of motion after 325 ticks in CuttingAction (status=wiggle, max link displacement 0.00281m over 25 ticks)."
bread_0015,bread_cutting,77ef99c6-1b28-44c3-8837-689ecbd25fc9,bread_0015,2986113688,apartment,full_system,base_system,True,,,Knife,middle,1,,,True,True,collision_or_motion_failure,task_failed,all_cut_attempts_failed,False,,False,False,False,False,armar7,failed,,knife_left,primary,2,1,2,True,False,False,,-0.179349,-0.068857,-0.040973,0.187667,0.067081,0.05007,0.367016,0.135937,0.091044,0.00454229,4.946627,4.505865,0.742643,map,0.0,0.0,0.0,0.0,,,,4.946627,4.505865,0.742643,0.0,0.0,-0.863251,0.504775,0.0,-0.0,-2.08335,-0.154349,-0.000888,-0.036421,0.068117,0.5,0.05,1.0,0.0,0.0,-0.490404,-0.871495,0.0,-2.08335,saw,0.03,4,13,54.1339,2,"RIGHT primary -> CollisionError (reported as timeout): Motion stalled while waiting for end of motion after 525 ticks in CuttingAction (status=wiggle, max link displacement 0.00231m over 25 ticks). | LEFT primary -> CollisionError (reported as timeout): Motion stalled while waiting for end of motion after 475 ticks in CuttingAction (status=stagnant, max link displacement 0.00029m over 25 ticks)."
bread_0016,bread_cutting,77ef99c6-1b28-44c3-8837-689ecbd25fc9,bread_0016,2986113688,apartment,full_system,base_system,True,,,Knife,middle,1,,,True,True,collision_or_motion_failure,task_failed,all_cut_attempts_failed,False,,False,False,False,False,armar7,failed,,knife_left,primary,2,1,2,True,False,False,,-0.128106,-0.049183,-0.029267,0.134048,0.047915,0.035765,0.262154,0.097098,0.065031,0.00165535,4.809907,3.825381,0.742643,map,0.0,0.0,0.0,0.0,,,,4.809907,3.825381,0.742643,0.0,0.0,0.931711,-0.363201,0.0,-0.0,-2.398191,-0.103106,-0.000634,-0.026015,0.095364,0.5,0.05,1.0,0.0,0.0,-0.73617,-0.676796,0.0,-2.398191,saw,0.03,4,13,48.5538,2,"RIGHT primary -> CollisionError (reported as timeout): Motion stalled while waiting for end of motion after 300 ticks in CuttingAction (status=wiggle, max link displacement 0.01124m over 25 ticks). | LEFT primary -> CollisionError (reported as timeout): Motion stalled while waiting for end of motion after 375 ticks in CuttingAction (status=stagnant, max link displacement 0.00009m over 25 ticks)."
bread_0017,bread_cutting,77ef99c6-1b28-44c3-8837-689ecbd25fc9,bread_0017,2986113688,apartment,full_system,base_system,True,,,Knife,middle,1,,,True,True,collision_or_motion_failure,task_failed,all_cut_attempts_failed,False,,False,False,False,False,armar7,failed,,knife_left,primary,2,1,2,True,False,False,,-0.128106,-0.049183,-0.029267,0.134048,0.047915,0.035765,0.262154,0.097098,0.065031,0.00165535,4.829333,4.159899,0.742643,map,0.0,0.0,0.0,0.0,,,,4.829333,4.159899,0.742643,0.0,0.0,-0.078317,0.996929,0.0,-0.0,-0.156794,-0.103106,-0.000634,-0.026015,0.095364,0.5,0.05,1.0,0.0,0.0,0.987733,-0.156153,0.0,-0.156794,saw,0.03,4,13,45.478,2,"RIGHT primary -> CollisionError (reported as timeout): Motion stalled while waiting for end of motion after 425 ticks in CuttingAction (status=stagnant, max link displacement 0.00028m over 25 ticks). | LEFT primary -> CollisionError (reported as timeout): Motion stalled while waiting for end of motion after 375 ticks in CuttingAction (status=wiggle, max link displacement 0.00244m over 25 ticks)."
bread_0001,bread_cutting,9c40ca25-6032-4282-b56a-5395331ed402,bread_0001,1065888876,apartment,full_system,base_system,True,,,Knife,middle,1,,,True,True,ok,cut,primary_success,False,,False,False,False,True,unitree_g1,success,RIGHT,knife_right,primary,1,0,0,False,False,False,,-0.128106,-0.049183,-0.029267,0.134048,0.047915,0.035765,0.262154,0.097098,0.065031,0.00165535,2.950832,3.551992,0.966814,map,0.0,0.0,0.0,0.0,,,,2.950832,3.551992,0.966814,0.0,0.0,0.347195,0.937793,0.0,-0.0,0.709156,-0.103106,-0.000634,-0.026015,0.095364,0.5,0.05,1.0,0.0,0.0,0.758912,0.651193,0.0,0.709156,saw,0.03,4,13,58.4152,0,
bread_0002,bread_cutting,9c40ca25-6032-4282-b56a-5395331ed402,bread_0002,1065888876,apartment,full_system,base_system,True,,,Knife,middle,1,,,True,True,collision_or_motion_failure,task_failed,all_cut_attempts_failed,False,,False,False,False,False,unitree_g1,failed,,knife_left,primary,2,1,2,True,False,False,,-0.128106,-0.049183,-0.029267,0.134048,0.047915,0.035765,0.262154,0.097098,0.065031,0.00165535,2.753961,3.040394,0.966814,map,0.0,0.0,0.0,0.0,,,,2.753961,3.040394,0.966814,0.0,0.0,-0.37538,0.926871,0.0,-0.0,-0.769613,-0.103106,-0.000634,-0.026015,0.095364,0.5,0.05,1.0,0.0,0.0,0.71818,-0.695857,0.0,-0.769613,saw,0.03,4,13,109.2281,2,"RIGHT primary -> CollisionError (reported as timeout): Motion stalled while waiting for end of motion after 475 ticks in CuttingAction (status=wiggle, max link displacement 0.02195m over 25 ticks). | LEFT primary -> CollisionError (reported as timeout): Motion stalled while waiting for end of motion after 700 ticks in CuttingAction (status=wiggle, max link displacement 0.02129m over 25 ticks)."
bread_0003,bread_cutting,9c40ca25-6032-4282-b56a-5395331ed402,bread_0003,1065888876,apartment,full_system,base_system,True,,,Knife,middle,1,,,True,True,ok,retry_with_left_arm,right_arm_failed,False,,False,False,False,True,unitree_g1,success,LEFT,knife_left,primary,2,1,1,True,True,False,,-0.128106,-0.049183,-0.029267,0.134048,0.047915,0.035765,0.262154,0.097098,0.065031,0.00165535,2.603065,3.698847,0.966814,map,0.0,0.0,0.0,0.0,,,,2.603065,3.698847,0.966814,0.0,0.0,-0.799934,0.600088,0.0,-0.0,-1.85437,-0.103106,-0.000634,-0.026015,0.095364,0.5,0.05,1.0,0.0,0.0,-0.279788,-0.960062,0.0,-1.85437,saw,0.03,4,13,94.1295,1,"RIGHT primary -> CollisionError (reported as timeout): Motion stalled while waiting for end of motion after 300 ticks in CuttingAction (status=wiggle, max link displacement 0.00290m over 25 ticks)."
bread_0004,bread_cutting,9c40ca25-6032-4282-b56a-5395331ed402,bread_0004,1065888876,apartment,full_system,base_system,True,,,Knife,middle,1,,,True,True,collision_or_motion_failure,task_failed,all_cut_attempts_failed,False,,False,False,False,False,unitree_g1,failed,,knife_left,primary,2,1,2,True,False,False,,-0.20497,-0.078693,-0.046827,0.214477,0.076664,0.057223,0.419447,0.155357,0.10405,0.00678033,2.706829,1.71482,0.966814,map,0.0,0.0,0.0,0.0,,,,2.706829,1.71482,0.966814,0.0,0.0,0.944749,-0.327796,0.0,-0.0,-2.473653,-0.17997,-0.001015,-0.041624,0.059602,0.5,0.05,1.0,0.0,0.0,-0.7851,-0.61937,0.0,-2.473653,saw,0.03,4,13,214.3436,2,"RIGHT primary -> CollisionError (reported as timeout): Hard timeout reached while waiting for end of motion after 1000 ticks in CuttingAction. | LEFT primary -> CollisionError (reported as timeout): Motion stalled while waiting for end of motion after 575 ticks in CuttingAction (status=wiggle, max link displacement 0.00674m over 25 ticks)."
bread_0005,bread_cutting,9c40ca25-6032-4282-b56a-5395331ed402,bread_0005,1065888876,apartment,full_system,base_system,True,,,Knife,middle,1,,,True,True,ok,cut,primary_success,False,,False,False,False,True,unitree_g1,success,RIGHT,knife_right,primary,1,0,0,False,False,False,,-0.128106,-0.049183,-0.029267,0.134048,0.047915,0.035765,0.262154,0.097098,0.065031,0.00165535,2.924841,2.480025,0.966814,map,0.0,0.0,0.0,0.0,,,,2.924841,2.480025,0.966814,0.0,0.0,0.808366,0.58868,0.0,-0.0,1.882743,-0.103106,-0.000634,-0.026015,0.095364,0.5,0.05,1.0,0.0,0.0,-0.306912,0.951738,0.0,1.882743,saw,0.03,4,13,78.2341,0,
bread_0006,bread_cutting,9c40ca25-6032-4282-b56a-5395331ed402,bread_0006,1065888876,apartment,full_system,base_system,True,,,Knife,middle,1,,,True,True,collision_or_motion_failure,task_failed,all_cut_attempts_failed,False,,False,False,False,False,unitree_g1,failed,,knife_left,primary,2,1,2,True,False,False,,-0.128106,-0.049183,-0.029267,0.134048,0.047915,0.035765,0.262154,0.097098,0.065031,0.00165535,2.592107,2.62116,0.966814,map,0.0,0.0,0.0,0.0,,,,2.592107,2.62116,0.966814,0.0,0.0,0.238147,0.971229,0.0,-0.0,0.480915,-0.103106,-0.000634,-0.026015,0.095364,0.5,0.05,1.0,0.0,0.0,0.886572,0.46259,0.0,0.480915,saw,0.03,4,13,153.0754,2,"RIGHT primary -> CollisionError (reported as timeout): Motion stalled while waiting for end of motion after 600 ticks in CuttingAction (status=wiggle, max link displacement 0.00243m over 25 ticks). | LEFT primary -> CollisionError (reported as timeout): Motion stalled while waiting for end of motion after 650 ticks in CuttingAction (status=stagnant, max link displacement 0.00003m over 25 ticks)."
bread_0007,bread_cutting,9c40ca25-6032-4282-b56a-5395331ed402,bread_0007,1065888876,apartment,full_system,base_system,True,,,Knife,middle,1,,,True,True,ok,retry_with_left_arm,right_arm_failed,False,,False,False,False,True,unitree_g1,success,LEFT,knife_left,primary,2,1,1,True,True,False,,-0.128106,-0.049183,-0.029267,0.134048,0.047915,0.035765,0.262154,0.097098,0.065031,0.00165535,2.633748,3.326331,0.966814,map,0.0,0.0,0.0,0.0,,,,2.633748,3.326331,0.966814,0.0,0.0,0.872247,-0.489066,0.0,-0.0,-2.119556,-0.103106,-0.000634,-0.026015,0.095364,0.5,0.05,1.0,0.0,0.0,-0.521629,-0.853172,0.0,-2.119556,saw,0.03,4,13,161.4365,1,"RIGHT primary -> CollisionError (reported as timeout): Motion stalled while waiting for end of motion after 750 ticks in CuttingAction (status=wiggle, max link displacement 0.00789m over 25 ticks). | LEFT primary -> CollisionError (reported as timeout): Motion stalled while waiting for end of motion after 400 ticks in CuttingAction (status=wiggle, max link displacement 0.00485m over 25 ticks)."
bread_0008,bread_cutting,9c40ca25-6032-4282-b56a-5395331ed402,bread_0008,1065888876,apartment,full_system,base_system,True,,,Knife,middle,1,,,True,True,collision_or_motion_failure,task_failed,all_cut_attempts_failed,False,,False,False,False,False,unitree_g1,failed,,knife_left,primary,2,1,2,True,False,False,,-0.153728,-0.05902,-0.03512,0.160858,0.057498,0.042917,0.314585,0.116518,0.078038,0.00286045,2.560266,2.19297,0.966814,map,0.0,0.0,0.0,0.0,,,,2.560266,2.19297,0.966814,0.0,0.0,0.421506,0.906825,0.0,-0.0,0.870212,-0.128728,-0.000761,-0.031218,0.07947,0.5,0.05,1.0,0.0,0.0,0.644665,0.764465,0.0,0.870212,saw,0.03,4,13,124.572,2,"RIGHT primary -> CollisionError (reported as timeout): Motion stalled while waiting for end of motion after 400 ticks in CuttingAction (status=wiggle, max link displacement 0.00297m over 25 ticks). | LEFT primary -> CollisionError (reported as timeout): Motion stalled while waiting for end of motion after 450 ticks in CuttingAction (status=stagnant, max link displacement 0.00131m over 25 ticks)."
bread_0009,bread_cutting,9c40ca25-6032-4282-b56a-5395331ed402,bread_0009,1065888876,apartment,full_system,base_system,True,,,Knife,middle,1,,,True,True,ok,retry_with_left_arm,right_arm_failed,False,,False,False,False,True,unitree_g1,success,LEFT,knife_left,primary,2,1,1,True,True,False,,-0.128106,-0.049183,-0.029267,0.134048,0.047915,0.035765,0.262154,0.097098,0.065031,0.00165535,2.575357,4.03434,0.966814,map,0.0,0.0,0.0,0.0,,,,2.575357,4.03434,0.966814,0.0,0.0,-0.735337,0.677702,0.0,-0.0,-1.652326,-0.103106,-0.000634,-0.026015,0.095364,0.5,0.05,1.0,0.0,0.0,-0.08144,-0.996678,0.0,-1.652326,saw,0.03,4,13,115.4545,1,"RIGHT primary -> CollisionError (reported as timeout): Motion stalled while waiting for end of motion after 575 ticks in CuttingAction (status=wiggle, max link displacement 0.02376m over 25 ticks). | LEFT primary -> CollisionError (reported as timeout): Motion stalled while waiting for end of motion after 375 ticks in CuttingAction (status=wiggle, max link displacement 0.00508m over 25 ticks)."
bread_0010,bread_cutting,9c40ca25-6032-4282-b56a-5395331ed402,bread_0010,1065888876,apartment,full_system,base_system,True,,,Knife,middle,1,,,True,True,collision_or_motion_failure,task_failed,all_cut_attempts_failed,False,,False,False,False,False,unitree_g1,failed,,knife_left,primary,2,1,2,True,False,False,,-0.128106,-0.049183,-0.029267,0.134048,0.047915,0.035765,0.262154,0.097098,0.065031,0.00165535,2.852655,2.777393,0.966814,map,0.0,0.0,0.0,0.0,,,,2.852655,2.777393,0.966814,0.0,0.0,0.522209,0.852817,0.0,-0.0,1.098879,-0.103106,-0.000634,-0.026015,0.095364,0.5,0.05,1.0,0.0,0.0,0.454595,0.890698,0.0,1.098879,saw,0.03,4,13,94.2194,2,"RIGHT primary -> CollisionError (reported as timeout): Motion stalled while waiting for end of motion after 375 ticks in CuttingAction (status=wiggle, max link displacement 0.01043m over 25 ticks). | LEFT primary -> CollisionError (reported as timeout): Motion stalled while waiting for end of motion after 425 ticks in CuttingAction (status=wiggle, max link displacement 0.00514m over 25 ticks)."
bread_0011,bread_cutting,9c40ca25-6032-4282-b56a-5395331ed402,bread_0011,1065888876,apartment,full_system,base_system,True,,,Knife,middle,1,,,True,True,ok,cut,primary_success,False,,False,False,False,True,unitree_g1,success,RIGHT,knife_right,primary,1,0,0,False,False,False,,-0.128106,-0.049183,-0.029267,0.134048,0.047915,0.035765,0.262154,0.097098,0.065031,0.00165535,2.503965,2.910751,0.966814,map,0.0,0.0,0.0,0.0,,,,2.503965,2.910751,0.966814,0.0,0.0,0.996847,-0.079351,0.0,-0.0,-2.982723,-0.103106,-0.000634,-0.026015,0.095364,0.5,0.05,1.0,0.0,0.0,-0.987407,-0.158202,0.0,-2.982723,saw,0.03,4,13,59.535,0,
bread_0012,bread_cutting,9c40ca25-6032-4282-b56a-5395331ed402,bread_0012,1065888876,apartment,full_system,base_system,True,,,Knife,middle,1,,,True,True,ok,cut,primary_success,False,,False,False,False,True,unitree_g1,success,RIGHT,knife_right,primary,1,0,0,False,False,False,,-0.128106,-0.049183,-0.029267,0.134048,0.047915,0.035765,0.262154,0.097098,0.065031,0.00165535,2.494698,1.342001,0.966814,map,0.0,0.0,0.0,0.0,,,,2.494698,1.342001,0.966814,0.0,0.0,-0.248716,0.968577,0.0,-0.0,-0.502708,-0.103106,-0.000634,-0.026015,0.095364,0.5,0.05,1.0,0.0,0.0,0.876281,-0.481801,0.0,-0.502708,saw,0.03,4,13,82.1351,0,
bread_0013,bread_cutting,9c40ca25-6032-4282-b56a-5395331ed402,bread_0013,1065888876,apartment,full_system,base_system,True,,,Knife,middle,1,,,True,True,ok,cut,primary_success,False,,False,False,False,True,unitree_g1,success,RIGHT,knife_right,primary,1,0,0,False,False,False,,-0.153728,-0.05902,-0.03512,0.160858,0.057498,0.042917,0.314585,0.116518,0.078038,0.00286045,2.936794,4.005079,0.966814,map,0.0,0.0,0.0,0.0,,,,2.936794,4.005079,0.966814,0.0,0.0,0.958336,-0.285644,0.0,-0.0,-2.562236,-0.128728,-0.000761,-0.031218,0.07947,0.5,0.05,1.0,0.0,0.0,-0.836815,-0.547486,0.0,-2.562236,saw,0.03,4,13,25.4262,0,
bread_0014,bread_cutting,9c40ca25-6032-4282-b56a-5395331ed402,bread_0014,1065888876,apartment,full_system,base_system,True,,,Knife,middle,1,,,True,True,ok,cut,primary_success,False,,False,False,False,True,unitree_g1,success,RIGHT,knife_right,primary,1,0,0,False,False,False,,-0.128106,-0.049183,-0.029267,0.134048,0.047915,0.035765,0.262154,0.097098,0.065031,0.00165535,2.919336,1.362271,0.966814,map,0.0,0.0,0.0,0.0,,,,2.919336,1.362271,0.966814,0.0,0.0,0.023986,0.999712,0.0,-0.0,0.047977,-0.103106,-0.000634,-0.026015,0.095364,0.5,0.05,1.0,0.0,0.0,0.998849,0.047958,0.0,0.047977,saw,0.03,4,13,52.9527,0,
bread_0015,bread_cutting,9c40ca25-6032-4282-b56a-5395331ed402,bread_0015,1065888876,apartment,full_system,base_system,True,,,Knife,middle,1,,,True,True,ok,cut,primary_success,False,,False,False,False,True,unitree_g1,success,RIGHT,knife_right,primary,1,0,0,False,False,False,,-0.128106,-0.049183,-0.029267,0.134048,0.047915,0.035765,0.262154,0.097098,0.065031,0.00165535,2.893589,2.093029,0.966814,map,0.0,0.0,0.0,0.0,,,,2.893589,2.093029,0.966814,0.0,0.0,0.549624,0.835412,0.0,-0.0,1.163829,-0.103106,-0.000634,-0.026015,0.095364,0.5,0.05,1.0,0.0,0.0,0.395826,0.918325,0.0,1.163829,saw,0.03,4,13,34.1871,0,
bread_0016,bread_cutting,9c40ca25-6032-4282-b56a-5395331ed402,bread_0016,1065888876,apartment,full_system,base_system,True,,,Knife,middle,1,,,True,True,collision_or_motion_failure,task_failed,all_cut_attempts_failed,False,,False,False,False,False,unitree_g1,failed,,knife_left,primary,2,1,2,True,False,False,,-0.153728,-0.05902,-0.03512,0.160858,0.057498,0.042917,0.314585,0.116518,0.078038,0.00286045,0.319663,3.428841,0.9405,map,0.0,0.0,0.0,0.0,,,,0.319663,3.428841,0.9405,0.0,0.0,-0.500574,0.865694,0.0,-0.0,-1.048523,-0.128728,-0.000761,-0.031218,0.07947,0.5,0.05,1.0,0.0,0.0,0.498851,-0.866688,0.0,-1.048523,saw,0.03,4,13,85.0741,2,"RIGHT primary -> CollisionError (reported as timeout): Motion stalled while waiting for end of motion after 450 ticks in CuttingAction (status=wiggle, max link displacement 0.01182m over 25 ticks). | LEFT primary -> CollisionError (reported as timeout): Motion stalled while waiting for end of motion after 450 ticks in CuttingAction (status=wiggle, max link displacement 0.01837m over 25 ticks)."
bread_0017,bread_cutting,9c40ca25-6032-4282-b56a-5395331ed402,bread_0017,1065888876,apartment,full_system,base_system,True,,,Knife,middle,1,,,True,True,collision_or_motion_failure,task_failed,all_cut_attempts_failed,False,,False,False,False,False,unitree_g1,failed,,knife_left,primary,2,1,2,True,False,False,,-0.128106,-0.049183,-0.029267,0.134048,0.047915,0.035765,0.262154,0.097098,0.065031,0.00165535,0.34541,3.025246,0.9405,map,0.0,0.0,0.0,0.0,,,,0.34541,3.025246,0.9405,0.0,0.0,-0.197931,0.980216,0.0,-0.0,-0.398493,-0.103106,-0.000634,-0.026015,0.095364,0.5,0.05,1.0,0.0,0.0,0.921647,-0.38803,0.0,-0.398493,saw,0.03,4,13,190.9414,2,"RIGHT primary -> CollisionError (reported as timeout): Motion stalled while waiting for end of motion after 550 ticks in CuttingAction (status=stagnant, max link displacement 0.00044m over 25 ticks). | LEFT primary -> CollisionError (reported as timeout): Motion stalled while waiting for end of motion after 775 ticks in CuttingAction (status=stagnant, max link displacement 0.00000m over 25 ticks)."
bread_0018,bread_cutting,9c40ca25-6032-4282-b56a-5395331ed402,bread_0018,1065888876,apartment,full_system,base_system,True,,,Knife,middle,1,,,True,True,collision_or_motion_failure,task_failed,all_cut_attempts_failed,False,,False,False,False,False,unitree_g1,failed,,knife_left,primary,2,1,2,True,False,False,,-0.179349,-0.068857,-0.040973,0.187667,0.067081,0.05007,0.367016,0.135937,0.091044,0.00454229,4.999672,4.067686,0.742643,map,0.0,0.0,0.0,0.0,,,,4.999672,4.067686,0.742643,0.0,0.0,0.999999,0.001178,0.0,-0.0,3.139237,-0.154349,-0.000888,-0.036421,0.068117,0.5,0.05,1.0,0.0,0.0,-0.999997,0.002355,0.0,3.139237,saw,0.03,4,13,59.4395,2,"RIGHT primary -> CollisionError (reported as timeout): Motion stalled while waiting for end of motion after 525 ticks in CuttingAction (status=stagnant, max link displacement 0.00000m over 25 ticks). | LEFT primary -> CollisionError (reported as timeout): Motion stalled while waiting for end of motion after 625 ticks in CuttingAction (status=stagnant, max link displacement 0.00136m over 25 ticks)."
bread_0019,bread_cutting,9c40ca25-6032-4282-b56a-5395331ed402,bread_0019,1065888876,apartment,full_system,base_system,True,,,Knife,middle,1,,,True,True,collision_or_motion_failure,task_failed,all_cut_attempts_failed,False,,False,False,False,False,unitree_g1,failed,,knife_left,primary,2,1,2,True,False,False,,-0.179349,-0.068857,-0.040973,0.187667,0.067081,0.05007,0.367016,0.135937,0.091044,0.00454229,4.981794,3.546866,0.742643,map,0.0,0.0,0.0,0.0,,,,4.981794,3.546866,0.742643,0.0,0.0,-0.370932,0.92866,0.0,-0.0,-0.760025,-0.154349,-0.000888,-0.036421,0.068117,0.5,0.05,1.0,0.0,0.0,0.724819,-0.68894,0.0,-0.760025,saw,0.03,4,13,72.4137,2,"RIGHT primary -> CollisionError (reported as timeout): Motion stalled while waiting for end of motion after 400 ticks in CuttingAction (status=wiggle, max link displacement 0.00850m over 25 ticks). | LEFT primary -> CollisionError (reported as timeout): Motion stalled while waiting for end of motion after 400 ticks in CuttingAction (status=wiggle, max link displacement 0.00352m over 25 ticks)."
bread_0020,bread_cutting,9c40ca25-6032-4282-b56a-5395331ed402,bread_0020,1065888876,apartment,full_system,base_system,True,,,Knife,middle,1,,,True,True,ok,cut,primary_success,False,,False,False,False,True,unitree_g1,success,RIGHT,knife_right,primary,1,0,0,False,False,False,,-0.153728,-0.05902,-0.03512,0.160858,0.057498,0.042917,0.314585,0.116518,0.078038,0.00286045,4.918454,4.48681,0.742643,map,0.0,0.0,0.0,0.0,,,,4.918454,4.48681,0.742643,0.0,0.0,-0.801997,0.597328,0.0,-0.0,-1.861263,-0.128728,-0.000761,-0.031218,0.07947,0.5,0.05,1.0,0.0,0.0,-0.286399,-0.95811,0.0,-1.861263,saw,0.03,4,13,21.845,0,
bread_0001,bread_cutting,088dc7a7-3bd1-4c29-b100-d0bdd7afd455,bread_0001,2028561360,apartment,full_system,base_system,True,,,Knife,middle,1,,,True,True,ok,cut,primary_success,False,,False,False,False,True,tiago,success,RIGHT,knife_right,primary,1,0,0,False,False,False,,-0.128106,-0.049183,-0.029267,0.134048,0.047915,0.035765,0.262154,0.097098,0.065031,0.00165535,2.891709,2.388884,0.966814,map,0.0,0.0,0.0,0.0,,,,2.891709,2.388884,0.966814,0.0,0.0,0.285103,0.958497,0.0,-0.0,0.578228,-0.103106,-0.000634,-0.026015,0.095364,0.5,0.05,1.0,0.0,0.0,0.837433,0.546541,0.0,0.578228,saw,0.03,4,13,41.7156,0,
bread_0002,bread_cutting,088dc7a7-3bd1-4c29-b100-d0bdd7afd455,bread_0002,2028561360,apartment,full_system,base_system,True,,,Knife,middle,1,,,True,True,collision_or_motion_failure,task_failed,all_cut_attempts_failed,False,,False,False,False,False,tiago,failed,,knife_left,primary,2,1,2,True,False,False,,-0.20497,-0.078693,-0.046827,0.214477,0.076664,0.057223,0.419447,0.155357,0.10405,0.00678033,2.875441,3.633345,0.966814,map,0.0,0.0,0.0,0.0,,,,2.875441,3.633345,0.966814,0.0,0.0,0.761409,0.648272,0.0,-0.0,1.730966,-0.17997,-0.001015,-0.041624,0.059602,0.5,0.05,1.0,0.0,0.0,-0.159486,0.9872,0.0,1.730966,saw,0.03,4,13,56.403,2,"RIGHT primary -> CollisionError (reported as timeout): Motion stalled while waiting for end of motion after 475 ticks in CuttingAction (status=stagnant, max link displacement 0.00195m over 25 ticks). | LEFT primary -> CollisionError (reported as timeout): Motion stalled while waiting for end of motion after 375 ticks in CuttingAction (status=stagnant, max link displacement 0.00008m over 25 ticks)."
bread_0003,bread_cutting,088dc7a7-3bd1-4c29-b100-d0bdd7afd455,bread_0003,2028561360,apartment,full_system,base_system,True,,,Knife,middle,1,,,True,True,collision_or_motion_failure,task_failed,all_cut_attempts_failed,False,,False,False,False,False,tiago,failed,,knife_left,primary,2,1,2,True,False,False,,-0.153728,-0.05902,-0.03512,0.160858,0.057498,0.042917,0.314585,0.116518,0.078038,0.00286045,2.648633,1.92352,0.966814,map,0.0,0.0,0.0,0.0,,,,2.648633,1.92352,0.966814,0.0,0.0,-0.416057,0.909339,0.0,-0.0,-0.858209,-0.128728,-0.000761,-0.031218,0.07947,0.5,0.05,1.0,0.0,0.0,0.653794,-0.756673,0.0,-0.858209,saw,0.03,4,13,80.1536,2,"RIGHT primary -> CollisionError (reported as timeout): Motion stalled while waiting for end of motion after 475 ticks in CuttingAction (status=stagnant, max link displacement 0.00001m over 25 ticks). | LEFT primary -> CollisionError (reported as timeout): Motion stalled while waiting for end of motion after 425 ticks in CuttingAction (status=stagnant, max link displacement 0.00016m over 25 ticks)."
bread_0004,bread_cutting,088dc7a7-3bd1-4c29-b100-d0bdd7afd455,bread_0004,2028561360,apartment,full_system,base_system,True,,,Knife,middle,1,,,True,True,collision_or_motion_failure,task_failed,all_cut_attempts_failed,False,,False,False,False,False,tiago,failed,,knife_left,primary,2,1,2,True,False,False,,-0.128106,-0.049183,-0.029267,0.134048,0.047915,0.035765,0.262154,0.097098,0.065031,0.00165535,2.772325,2.889119,0.966814,map,0.0,0.0,0.0,0.0,,,,2.772325,2.889119,0.966814,0.0,0.0,-0.130149,0.991494,0.0,-0.0,-0.261038,-0.103106,-0.000634,-0.026015,0.095364,0.5,0.05,1.0,0.0,0.0,0.966123,-0.258084,0.0,-0.261038,saw,0.03,4,13,89.2543,2,"RIGHT primary -> CollisionError (reported as timeout): Motion stalled while waiting for end of motion after 825 ticks in CuttingAction (status=stagnant, max link displacement 0.00048m over 25 ticks). | LEFT primary -> CollisionError (reported as timeout): Motion stalled while waiting for end of motion after 700 ticks in CuttingAction (status=stagnant, max link displacement 0.00013m over 25 ticks)."
bread_0005,bread_cutting,088dc7a7-3bd1-4c29-b100-d0bdd7afd455,bread_0005,2028561360,apartment,full_system,base_system,True,,,Knife,middle,1,,,True,True,collision_or_motion_failure,task_failed,all_cut_attempts_failed,False,,False,False,False,False,tiago,failed,,knife_left,primary,2,1,2,True,False,False,,-0.20497,-0.078693,-0.046827,0.214477,0.076664,0.057223,0.419447,0.155357,0.10405,0.00678033,2.636876,1.467974,0.966814,map,0.0,0.0,0.0,0.0,,,,2.636876,1.467974,0.966814,0.0,0.0,0.552175,0.833728,0.0,-0.0,1.169942,-0.17997,-0.001015,-0.041624,0.059602,0.5,0.05,1.0,0.0,0.0,0.390205,0.920728,0.0,1.169942,saw,0.03,4,13,52.4597,2,"RIGHT primary -> CollisionError (reported as timeout): Motion stalled while waiting for end of motion after 325 ticks in CuttingAction (status=stagnant, max link displacement 0.00104m over 25 ticks). | LEFT primary -> CollisionError (reported as timeout): Motion stalled while waiting for end of motion after 350 ticks in CuttingAction (status=stagnant, max link displacement 0.00106m over 25 ticks)."
bread_0006,bread_cutting,088dc7a7-3bd1-4c29-b100-d0bdd7afd455,bread_0006,2028561360,apartment,full_system,base_system,True,,,Knife,middle,1,,,True,True,collision_or_motion_failure,task_failed,all_cut_attempts_failed,False,,False,False,False,False,tiago,failed,,knife_left,primary,2,1,2,True,False,False,,-0.128106,-0.049183,-0.029267,0.134048,0.047915,0.035765,0.262154,0.097098,0.065031,0.00165535,2.591979,3.110247,0.966814,map,0.0,0.0,0.0,0.0,,,,2.591979,3.110247,0.966814,0.0,0.0,0.948078,-0.318037,0.0,-0.0,-2.494277,-0.103106,-0.000634,-0.026015,0.095364,0.5,0.05,1.0,0.0,0.0,-0.797706,-0.603047,0.0,-2.494277,saw,0.03,4,13,79.4579,2,"RIGHT primary -> CollisionError (reported as timeout): Motion stalled while waiting for end of motion after 550 ticks in CuttingAction (status=stagnant, max link displacement 0.00081m over 25 ticks). | LEFT primary -> CollisionError (reported as timeout): Motion stalled while waiting for end of motion after 275 ticks in CuttingAction (status=stagnant, max link displacement 0.00003m over 25 ticks)."
bread_0007,bread_cutting,088dc7a7-3bd1-4c29-b100-d0bdd7afd455,bread_0007,2028561360,apartment,full_system,base_system,True,,,Knife,middle,1,,,True,True,ok,cut,primary_success,False,,False,False,False,True,tiago,success,RIGHT,knife_right,primary,1,0,0,False,False,False,,-0.128106,-0.049183,-0.029267,0.134048,0.047915,0.035765,0.262154,0.097098,0.065031,0.00165535,2.962246,3.174618,0.966814,map,0.0,0.0,0.0,0.0,,,,2.962246,3.174618,0.966814,0.0,0.0,0.081789,0.99665,0.0,-0.0,0.16376,-0.103106,-0.000634,-0.026015,0.095364,0.5,0.05,1.0,0.0,0.0,0.986621,0.163029,0.0,0.16376,saw,0.03,4,13,27.2345,0,
bread_0008,bread_cutting,088dc7a7-3bd1-4c29-b100-d0bdd7afd455,bread_0008,2028561360,apartment,full_system,base_system,True,,,Knife,middle,1,,,True,True,ok,cut,primary_success,False,,False,False,False,True,tiago,success,RIGHT,knife_right,primary,1,0,0,False,False,False,,-0.128106,-0.049183,-0.029267,0.134048,0.047915,0.035765,0.262154,0.097098,0.065031,0.00165535,2.536772,2.290962,0.966814,map,0.0,0.0,0.0,0.0,,,,2.536772,2.290962,0.966814,0.0,0.0,0.90959,-0.415506,0.0,-0.0,-2.284595,-0.103106,-0.000634,-0.026015,0.095364,0.5,0.05,1.0,0.0,0.0,-0.654709,-0.755881,0.0,-2.284595,saw,0.03,4,13,115.3085,0,
bread_0009,bread_cutting,088dc7a7-3bd1-4c29-b100-d0bdd7afd455,bread_0009,2028561360,apartment,full_system,base_system,True,,,Knife,middle,1,,,True,True,ok,cut,primary_success,False,,False,False,False,True,tiago,success,RIGHT,knife_right,primary,1,0,0,False,False,False,,-0.128106,-0.049183,-0.029267,0.134048,0.047915,0.035765,0.262154,0.097098,0.065031,0.00165535,2.550384,3.949397,0.966814,map,0.0,0.0,0.0,0.0,,,,2.550384,3.949397,0.966814,0.0,0.0,0.930165,-0.367143,0.0,-0.0,-2.389722,-0.103106,-0.000634,-0.026015,0.095364,0.5,0.05,1.0,0.0,0.0,-0.730413,-0.683006,0.0,-2.389722,saw,0.03,4,13,78.1681,0,
bread_0010,bread_cutting,088dc7a7-3bd1-4c29-b100-d0bdd7afd455,bread_0010,2028561360,apartment,full_system,base_system,True,,,Knife,middle,1,,,True,True,ok,cut,primary_success,False,,False,False,False,True,tiago,success,RIGHT,knife_right,primary,1,0,0,False,False,False,,-0.128106,-0.049183,-0.029267,0.134048,0.047915,0.035765,0.262154,0.097098,0.065031,0.00165535,2.516008,3.398806,0.966814,map,0.0,0.0,0.0,0.0,,,,2.516008,3.398806,0.966814,0.0,0.0,-0.680525,0.732725,0.0,-0.0,-1.496958,-0.103106,-0.000634,-0.026015,0.095364,0.5,0.05,1.0,0.0,0.0,0.073771,-0.997275,0.0,-1.496958,saw,0.03,4,13,26.128,0,
bread_0011,bread_cutting,088dc7a7-3bd1-4c29-b100-d0bdd7afd455,bread_0011,2028561360,apartment,full_system,base_system,True,,,Knife,middle,1,,,True,True,ok,cut,primary_success,False,,False,False,False,True,tiago,success,RIGHT,knife_right,primary,1,0,0,False,False,False,,-0.128106,-0.049183,-0.029267,0.134048,0.047915,0.035765,0.262154,0.097098,0.065031,0.00165535,2.631513,2.613055,0.966814,map,0.0,0.0,0.0,0.0,,,,2.631513,2.613055,0.966814,0.0,0.0,-0.579027,0.815308,0.0,-0.0,-1.23507,-0.103106,-0.000634,-0.026015,0.095364,0.5,0.05,1.0,0.0,0.0,0.329455,-0.944171,0.0,-1.23507,saw,0.03,4,13,44.1037,0,
bread_0012,bread_cutting,088dc7a7-3bd1-4c29-b100-d0bdd7afd455,bread_0012,2028561360,apartment,full_system,base_system,True,,,Knife,middle,1,,,True,True,ok,cut,primary_success,False,,False,False,False,True,tiago,success,RIGHT,knife_right,primary,1,0,0,False,False,False,,-0.128106,-0.049183,-0.029267,0.134048,0.047915,0.035765,0.262154,0.097098,0.065031,0.00165535,2.963386,1.76082,0.966814,map,0.0,0.0,0.0,0.0,,,,2.963386,1.76082,0.966814,0.0,0.0,0.443072,0.896486,0.0,-0.0,0.918046,-0.103106,-0.000634,-0.026015,0.095364,0.5,0.05,1.0,0.0,0.0,0.607374,0.794416,0.0,0.918046,saw,0.03,4,13,54.4545,0,
bread_0013,bread_cutting,088dc7a7-3bd1-4c29-b100-d0bdd7afd455,bread_0013,2028561360,apartment,full_system,base_system,True,,,Knife,middle,1,,,True,True,ok,cut,primary_success,False,,False,False,False,True,tiago,success,RIGHT,knife_right,primary,1,0,0,False,False,False,,-0.128106,-0.049183,-0.029267,0.134048,0.047915,0.035765,0.262154,0.097098,0.065031,0.00165535,2.949785,4.035737,0.966814,map,0.0,0.0,0.0,0.0,,,,2.949785,4.035737,0.966814,0.0,0.0,0.998459,-0.055485,0.0,-0.0,-3.030565,-0.103106,-0.000634,-0.026015,0.095364,0.5,0.05,1.0,0.0,0.0,-0.993843,-0.1108,0.0,-3.030565,saw,0.03,4,13,36.4619,0,
bread_0014,bread_cutting,088dc7a7-3bd1-4c29-b100-d0bdd7afd455,bread_0014,2028561360,apartment,full_system,base_system,True,,,Knife,middle,1,,,True,True,ok,cut,primary_success,False,,False,False,False,True,tiago,success,RIGHT,knife_right,primary,1,0,0,False,False,False,,-0.128106,-0.049183,-0.029267,0.134048,0.047915,0.035765,0.262154,0.097098,0.065031,0.00165535,2.980123,2.095835,0.966814,map,0.0,0.0,0.0,0.0,,,,2.980123,2.095835,0.966814,0.0,0.0,0.770572,0.637353,0.0,-0.0,1.759475,-0.103106,-0.000634,-0.026015,0.095364,0.5,0.05,1.0,0.0,0.0,-0.187561,0.982253,0.0,1.759475,saw,0.03,4,13,21.2037,0,
bread_0015,bread_cutting,088dc7a7-3bd1-4c29-b100-d0bdd7afd455,bread_0015,2028561360,apartment,full_system,base_system,True,,,Knife,middle,1,,,True,True,collision_or_motion_failure,task_failed,all_cut_attempts_failed,False,,False,False,False,False,tiago,failed,,knife_left,primary,2,1,2,True,False,False,,-0.179349,-0.068857,-0.040973,0.187667,0.067081,0.05007,0.367016,0.135937,0.091044,0.00454229,0.309152,3.461632,0.9405,map,0.0,0.0,0.0,0.0,,,,0.309152,3.461632,0.9405,0.0,0.0,-0.69008,0.723733,0.0,-0.0,-1.5232,-0.154349,-0.000888,-0.036421,0.068117,0.5,0.05,1.0,0.0,0.0,0.047578,-0.998868,0.0,-1.5232,saw,0.03,4,13,59.4245,2,"RIGHT primary -> CollisionError (reported as timeout): Motion stalled while waiting for end of motion after 400 ticks in CuttingAction (status=stagnant, max link displacement 0.00000m over 25 ticks). | LEFT primary -> CollisionError (reported as timeout): Motion stalled while waiting for end of motion after 425 ticks in CuttingAction (status=stagnant, max link displacement 0.00094m over 25 ticks)."
bread_0016,bread_cutting,088dc7a7-3bd1-4c29-b100-d0bdd7afd455,bread_0016,2028561360,apartment,full_system,base_system,True,,,Knife,middle,1,,,True,True,collision_or_motion_failure,task_failed,all_cut_attempts_failed,False,,False,False,False,False,tiago,failed,,knife_left,primary,2,1,2,True,False,False,,-0.128106,-0.049183,-0.029267,0.134048,0.047915,0.035765,0.262154,0.097098,0.065031,0.00165535,0.3667,3.058232,0.9405,map,0.0,0.0,0.0,0.0,,,,0.3667,3.058232,0.9405,0.0,0.0,0.937342,0.34841,0.0,-0.0,2.429845,-0.103106,-0.000634,-0.026015,0.095364,0.5,0.05,1.0,0.0,0.0,-0.757222,0.653158,0.0,2.429845,saw,0.03,4,13,96.9906,2,"RIGHT primary -> CollisionError (reported as timeout): Motion stalled while waiting for end of motion after 625 ticks in CuttingAction (status=wiggle, max link displacement 0.01009m over 25 ticks). | LEFT primary -> CollisionError (reported as timeout): Motion stalled while waiting for end of motion after 350 ticks in CuttingAction (status=stagnant, max link displacement 0.00008m over 25 ticks)."
bread_0017,bread_cutting,088dc7a7-3bd1-4c29-b100-d0bdd7afd455,bread_0017,2028561360,apartment,full_system,base_system,True,,,Knife,middle,1,,,True,True,ok,cut,primary_success,False,,False,False,False,True,tiago,success,RIGHT,knife_right,primary,1,0,0,False,False,False,,-0.128106,-0.049183,-0.029267,0.134048,0.047915,0.035765,0.262154,0.097098,0.065031,0.00165535,4.858877,4.251767,0.742643,map,0.0,0.0,0.0,0.0,,,,4.858877,4.251767,0.742643,0.0,0.0,-0.296993,0.95488,0.0,-0.0,-0.603084,-0.103106,-0.000634,-0.026015,0.095364,0.5,0.05,1.0,0.0,0.0,0.823591,-0.567185,0.0,-0.603084,saw,0.03,4,13,55.446,0,
bread_0018,bread_cutting,088dc7a7-3bd1-4c29-b100-d0bdd7afd455,bread_0018,2028561360,apartment,full_system,base_system,True,,,Knife,middle,1,,,True,True,ok,cut,primary_success,False,,False,False,False,True,tiago,success,RIGHT,knife_right,primary,1,0,0,False,False,False,,-0.128106,-0.049183,-0.029267,0.134048,0.047915,0.035765,0.262154,0.097098,0.065031,0.00165535,5.036907,3.54843,0.742643,map,0.0,0.0,0.0,0.0,,,,5.036907,3.54843,0.742643,0.0,0.0,-0.628864,0.777516,0.0,-0.0,-1.360182,-0.103106,-0.000634,-0.026015,0.095364,0.5,0.05,1.0,0.0,0.0,0.209061,-0.977903,0.0,-1.360182,saw,0.03,4,13,11.6417,0,
bread_0019,bread_cutting,088dc7a7-3bd1-4c29-b100-d0bdd7afd455,bread_0019,2028561360,apartment,full_system,base_system,True,,,Knife,middle,1,,,True,True,ok,cut,primary_success,False,,False,False,False,True,tiago,success,RIGHT,knife_right,primary,1,0,0,False,False,False,,-0.128106,-0.049183,-0.029267,0.134048,0.047915,0.035765,0.262154,0.097098,0.065031,0.00165535,5.100237,4.505408,0.742643,map,0.0,0.0,0.0,0.0,,,,5.100237,4.505408,0.742643,0.0,0.0,-0.483791,0.875184,0.0,-0.0,-1.009963,-0.103106,-0.000634,-0.026015,0.095364,0.5,0.05,1.0,0.0,0.0,0.531892,-0.846812,0.0,-1.009963,saw,0.03,4,13,12.5942,0,
