bread_name,task_name,run_id,task_instance_id,seed,world_name,experiment_condition,baseline_name,knowledge_query_success,knowledge_query_error,knowledge_prior_task,knowledge_cutting_tool,knowledge_cutting_position,knowledge_repetition,required_prerequisite,prerequisite_source,prerequisite_satisfied_initially,autonomous_execution_feasible,feasibility_reason,robot_decision,decision_reason,assistance_requested,assistance_type,assistance_completed,task_blocked_by_prerequisite,task_resumed_after_assistance,final_success,robot_name,outcome,succeeded_arm,tool_name,phase,total_attempts,retry_count,collision_failure_count,recovery_used,recovery_success,perturbation_applied,perturbation_type,object_aabb_min_x,object_aabb_min_y,object_aabb_min_z,object_aabb_max_x,object_aabb_max_y,object_aabb_max_z,object_size_x,object_size_y,object_size_z,object_volume_aabb,target_world_x,target_world_y,target_world_z,support_surface_name,support_world_x,support_world_y,support_world_z,support_yaw_rad,support_size_x,support_size_y,support_size_z,object_world_x,object_world_y,object_world_z,object_quat_x,object_quat_y,object_quat_z,object_quat_w,object_roll_rad,object_pitch_rad,object_yaw_rad,anchor_local_x,anchor_local_y,anchor_local_z,anchor_norm_x,anchor_norm_y,anchor_norm_z,cut_normal_local_x,cut_normal_local_y,cut_normal_local_z,cut_normal_world_x,cut_normal_world_y,cut_normal_world_z,cut_normal_world_yaw_rad,technique_name,slice_thickness_m,num_cuts_x,pointer_stride,execution_time_s,failure_count,failure_reasons
bread_0001,bread_cutting,20c0fb33-4dda-4ff6-860f-e910db8454bf,bread_0001,1583314390,apartment,full_system,base_system,True,,,Knife,middle,1,shell_removal,knowledge_base,False,False,ok,cut,primary_success,False,shell_removal,False,False,False,True,pr2,success,RIGHT,knife_right,primary,1,0,0,False,False,False,,-0.153728,-0.05902,-0.03512,0.160858,0.057498,0.042917,0.314585,0.116518,0.078038,0.00286045,16.354164,2.71933,0.42,map,0.0,0.0,0.0,0.0,,,,16.354164,2.71933,0.42,0.0,0.0,-0.142249,0.989831,0.0,-0.0,-0.285466,-0.128728,-0.000761,-0.031218,0.07947,0.5,0.05,1.0,0.0,0.0,0.959531,-0.281605,0.0,-0.285466,saw,0.03,1,13,7.2191,0,
bread_0002,bread_cutting,20c0fb33-4dda-4ff6-860f-e910db8454bf,bread_0002,1583314390,apartment,full_system,base_system,True,,,Knife,middle,1,shell_removal,knowledge_base,False,False,ok,rotate_object_and_retry,both_arms_failed_before_rotation,False,shell_removal,False,False,False,True,pr2,success,RIGHT,knife_right,after_rotation,3,2,2,True,True,True,z_rotation_180,-0.20497,-0.078693,-0.046827,0.214477,0.076664,0.057223,0.419447,0.155357,0.10405,0.00678033,16.848247,2.795277,0.42,map,0.0,0.0,0.0,0.0,,,,16.848247,2.795277,0.42,0.0,0.0,0.943698,0.330808,0.0,-0.0,2.467273,-0.17997,-0.001015,-0.041624,0.059602,0.5,0.05,1.0,0.0,0.0,-0.781132,0.624366,0.0,2.467273,saw,0.03,1,13,69.3631,2,RIGHT primary -> CollisionError (reported as timeout): Timeout reached while waiting for end of motion. | LEFT primary -> CollisionError (reported as timeout): Timeout reached while waiting for end of motion.
bread_0003,bread_cutting,20c0fb33-4dda-4ff6-860f-e910db8454bf,bread_0003,1583314390,apartment,full_system,base_system,True,,,Knife,middle,1,shell_removal,knowledge_base,False,False,ok,retry_with_left_arm,right_arm_failed,False,shell_removal,False,False,False,True,pr2,success,LEFT,knife_left,primary,2,1,1,True,True,False,,-0.128106,-0.049183,-0.029267,0.134048,0.047915,0.035765,0.262154,0.097098,0.065031,0.00165535,2.824721,2.560969,0.966814,map,0.0,0.0,0.0,0.0,,,,2.824721,2.560969,0.966814,0.0,0.0,0.929468,-0.368903,0.0,-0.0,-2.385936,-0.103106,-0.000634,-0.026015,0.095364,0.5,0.05,1.0,0.0,0.0,-0.727821,-0.685767,0.0,-2.385936,saw,0.03,1,13,53.5846,1,RIGHT primary -> CollisionError (reported as timeout): Timeout reached while waiting for end of motion.
bread_0004,bread_cutting,20c0fb33-4dda-4ff6-860f-e910db8454bf,bread_0004,1583314390,apartment,full_system,base_system,True,,,Knife,middle,1,shell_removal,knowledge_base,False,False,ok,cut,primary_success,False,shell_removal,False,False,False,True,pr2,success,RIGHT,knife_right,primary,1,0,0,False,False,False,,-0.128106,-0.049183,-0.029267,0.134048,0.047915,0.035765,0.262154,0.097098,0.065031,0.00165535,2.970843,3.817423,0.966814,map,0.0,0.0,0.0,0.0,,,,2.970843,3.817423,0.966814,0.0,0.0,0.983014,0.183531,0.0,-0.0,2.772439,-0.103106,-0.000634,-0.026015,0.095364,0.5,0.05,1.0,0.0,0.0,-0.932633,0.360826,0.0,2.772439,saw,0.03,1,13,15.2186,0,
bread_0005,bread_cutting,20c0fb33-4dda-4ff6-860f-e910db8454bf,bread_0005,1583314390,apartment,full_system,base_system,True,,,Knife,middle,1,shell_removal,knowledge_base,False,False,ok,cut,primary_success,False,shell_removal,False,False,False,True,pr2,success,RIGHT,knife_right,primary,1,0,0,False,False,False,,-0.128106,-0.049183,-0.029267,0.134048,0.047915,0.035765,0.262154,0.097098,0.065031,0.00165535,2.570021,2.942463,0.966814,map,0.0,0.0,0.0,0.0,,,,2.570021,2.942463,0.966814,0.0,0.0,-0.642596,0.766205,0.0,-0.0,-1.395762,-0.103106,-0.000634,-0.026015,0.095364,0.5,0.05,1.0,0.0,0.0,0.174142,-0.984721,0.0,-1.395762,saw,0.03,1,13,22.9532,0,
bread_0006,bread_cutting,20c0fb33-4dda-4ff6-860f-e910db8454bf,bread_0006,1583314390,apartment,full_system,base_system,True,,,Knife,middle,1,shell_removal,knowledge_base,False,False,ok,cut,primary_success,False,shell_removal,False,False,False,True,pr2,success,RIGHT,knife_right,primary,1,0,0,False,False,False,,-0.179349,-0.068857,-0.040973,0.187667,0.067081,0.05007,0.367016,0.135937,0.091044,0.00454229,2.691439,1.453901,0.966814,map,0.0,0.0,0.0,0.0,,,,2.691439,1.453901,0.966814,0.0,0.0,-0.575012,0.818145,0.0,-0.0,-1.225238,-0.154349,-0.000888,-0.036421,0.068117,0.5,0.05,1.0,0.0,0.0,0.338722,-0.940887,0.0,-1.225238,saw,0.03,1,13,33.8161,0,
bread_0007,bread_cutting,20c0fb33-4dda-4ff6-860f-e910db8454bf,bread_0007,1583314390,apartment,full_system,base_system,True,,,Knife,middle,1,shell_removal,knowledge_base,False,False,ok,cut,primary_success,False,shell_removal,False,False,False,True,pr2,success,RIGHT,knife_right,primary,1,0,0,False,False,False,,-0.179349,-0.068857,-0.040973,0.187667,0.067081,0.05007,0.367016,0.135937,0.091044,0.00454229,2.59761,3.860272,0.966814,map,0.0,0.0,0.0,0.0,,,,2.59761,3.860272,0.966814,0.0,0.0,0.999992,0.00395,0.0,-0.0,3.133693,-0.154349,-0.000888,-0.036421,0.068117,0.5,0.05,1.0,0.0,0.0,-0.999969,0.0079,0.0,3.133693,saw,0.03,1,13,27.5438,0,
bread_0008,bread_cutting,20c0fb33-4dda-4ff6-860f-e910db8454bf,bread_0008,1583314390,apartment,full_system,base_system,True,,,Knife,middle,1,shell_removal,knowledge_base,False,False,ok,cut,primary_success,False,shell_removal,False,False,False,True,pr2,success,RIGHT,knife_right,primary,1,0,0,False,False,False,,-0.20497,-0.078693,-0.046827,0.214477,0.076664,0.057223,0.419447,0.155357,0.10405,0.00678033,2.721354,2.134072,0.966814,map,0.0,0.0,0.0,0.0,,,,2.721354,2.134072,0.966814,0.0,0.0,0.246611,0.969114,0.0,-0.0,0.498364,-0.17997,-0.001015,-0.041624,0.059602,0.5,0.05,1.0,0.0,0.0,0.878366,0.477989,0.0,0.498364,saw,0.03,1,13,30.5095,0,
bread_0009,bread_cutting,20c0fb33-4dda-4ff6-860f-e910db8454bf,bread_0009,1583314390,apartment,full_system,base_system,True,,,Knife,middle,1,shell_removal,knowledge_base,False,False,ok,cut,primary_success,False,shell_removal,False,False,False,True,pr2,success,RIGHT,knife_right,primary,1,0,0,False,False,False,,-0.128106,-0.049183,-0.029267,0.134048,0.047915,0.035765,0.262154,0.097098,0.065031,0.00165535,2.797833,3.499955,0.966814,map,0.0,0.0,0.0,0.0,,,,2.797833,3.499955,0.966814,0.0,0.0,0.994664,0.10317,0.0,-0.0,2.934885,-0.103106,-0.000634,-0.026015,0.095364,0.5,0.05,1.0,0.0,0.0,-0.978712,0.205239,0.0,2.934885,saw,0.03,1,13,23.9112,0,
bread_0010,bread_cutting,20c0fb33-4dda-4ff6-860f-e910db8454bf,bread_0010,1583314390,apartment,full_system,base_system,True,,,Knife,middle,1,shell_removal,knowledge_base,False,False,ok,cut,primary_success,False,shell_removal,False,False,False,True,pr2,success,RIGHT,knife_right,primary,1,0,0,False,False,False,,-0.128106,-0.049183,-0.029267,0.134048,0.047915,0.035765,0.262154,0.097098,0.065031,0.00165535,2.931733,3.185297,0.966814,map,0.0,0.0,0.0,0.0,,,,2.931733,3.185297,0.966814,0.0,0.0,0.972405,0.233298,0.0,-0.0,2.670657,-0.103106,-0.000634,-0.026015,0.095364,0.5,0.05,1.0,0.0,0.0,-0.891144,0.45372,0.0,2.670657,saw,0.03,1,13,24.4496,0,
bread_0011,bread_cutting,20c0fb33-4dda-4ff6-860f-e910db8454bf,bread_0011,1583314390,apartment,full_system,base_system,True,,,Knife,middle,1,shell_removal,knowledge_base,False,False,ok,cut,primary_success,False,shell_removal,False,False,False,True,pr2,success,RIGHT,knife_right,primary,1,0,0,False,False,False,,-0.128106,-0.049183,-0.029267,0.134048,0.047915,0.035765,0.262154,0.097098,0.065031,0.00165535,2.972966,1.822613,0.966814,map,0.0,0.0,0.0,0.0,,,,2.972966,1.822613,0.966814,0.0,0.0,0.347458,0.937696,0.0,-0.0,0.709718,-0.103106,-0.000634,-0.026015,0.095364,0.5,0.05,1.0,0.0,0.0,0.758546,0.65162,0.0,0.709718,saw,0.03,1,13,26.2233,0,
bread_0012,bread_cutting,20c0fb33-4dda-4ff6-860f-e910db8454bf,bread_0012,1583314390,apartment,full_system,base_system,True,,,Knife,middle,1,shell_removal,knowledge_base,False,False,ok,retry_with_left_arm,right_arm_failed,False,shell_removal,False,False,False,True,pr2,success,LEFT,knife_left,primary,2,1,1,True,True,False,,-0.153728,-0.05902,-0.03512,0.160858,0.057498,0.042917,0.314585,0.116518,0.078038,0.00286045,0.339032,3.08497,0.9405,map,0.0,0.0,0.0,0.0,,,,0.339032,3.08497,0.9405,0.0,0.0,0.592722,0.805407,0.0,-0.0,1.268868,-0.128728,-0.000761,-0.031218,0.07947,0.5,0.05,1.0,0.0,0.0,0.297362,0.954765,0.0,1.268868,saw,0.03,1,13,156.3371,1,RIGHT primary -> CollisionError (reported as timeout): Timeout reached while waiting for end of motion.
bread_0013,bread_cutting,20c0fb33-4dda-4ff6-860f-e910db8454bf,bread_0013,1583314390,apartment,full_system,base_system,True,,,Knife,middle,1,shell_removal,knowledge_base,False,False,prerequisite_requires_human_assistance,request_human_help,knowledge_base_prerequisite_detected,True,shell_removal,False,True,False,False,pr2,failed,,knife_left,after_rotation,4,3,4,True,False,True,z_rotation_180,-0.128106,-0.049183,-0.029267,0.134048,0.047915,0.035765,0.262154,0.097098,0.065031,0.00165535,0.327743,3.511573,0.9405,map,0.0,0.0,0.0,0.0,,,,0.327743,3.511573,0.9405,0.0,0.0,0.359339,0.933207,0.0,-0.0,0.73512,-0.103106,-0.000634,-0.026015,0.095364,0.5,0.05,1.0,0.0,0.0,0.74175,0.670676,0.0,0.73512,saw,0.03,1,13,310.5555,4,RIGHT primary -> CollisionError (reported as timeout): Timeout reached while waiting for end of motion. | LEFT primary -> CollisionError (reported as timeout): Timeout reached while waiting for end of motion. | RIGHT after_rotation -> CollisionError (reported as timeout): Timeout reached while waiting for end of motion. | LEFT after_rotation -> CollisionError (reported as timeout): Timeout reached while waiting for end of motion.
bread_0014,bread_cutting,20c0fb33-4dda-4ff6-860f-e910db8454bf,bread_0014,1583314390,apartment,full_system,base_system,True,,,Knife,middle,1,shell_removal,knowledge_base,False,False,ok,cut,primary_success,False,shell_removal,False,False,False,True,pr2,success,RIGHT,knife_right,primary,1,0,0,False,False,False,,-0.179349,-0.068857,-0.040973,0.187667,0.067081,0.05007,0.367016,0.135937,0.091044,0.00454229,5.086219,3.775954,0.742643,map,0.0,0.0,0.0,0.0,,,,5.086219,3.775954,0.742643,0.0,0.0,0.007903,0.999969,0.0,-0.0,0.015806,-0.154349,-0.000888,-0.036421,0.068117,0.5,0.05,1.0,0.0,0.0,0.999875,0.015805,0.0,0.015806,saw,0.03,1,13,7.1392,0,
bread_0015,bread_cutting,20c0fb33-4dda-4ff6-860f-e910db8454bf,bread_0015,1583314390,apartment,full_system,base_system,True,,,Knife,middle,1,shell_removal,knowledge_base,False,False,ok,cut,primary_success,False,shell_removal,False,False,False,True,pr2,success,RIGHT,knife_right,primary,1,0,0,False,False,False,,-0.128106,-0.049183,-0.029267,0.134048,0.047915,0.035765,0.262154,0.097098,0.065031,0.00165535,4.940982,4.529357,0.742643,map,0.0,0.0,0.0,0.0,,,,4.940982,4.529357,0.742643,0.0,0.0,-0.44741,0.894329,0.0,-0.0,-0.927735,-0.103106,-0.000634,-0.026015,0.095364,0.5,0.05,1.0,0.0,0.0,0.599648,-0.800264,0.0,-0.927735,saw,0.03,1,13,14.8935,0,
bread_0016,bread_cutting,20c0fb33-4dda-4ff6-860f-e910db8454bf,bread_0016,1583314390,apartment,full_system,base_system,True,,,Knife,middle,1,shell_removal,knowledge_base,False,False,ok,cut,primary_success,False,shell_removal,False,False,False,True,pr2,success,RIGHT,knife_right,primary,1,0,0,False,False,False,,-0.128106,-0.049183,-0.029267,0.134048,0.047915,0.035765,0.262154,0.097098,0.065031,0.00165535,4.912204,4.146575,0.742643,map,0.0,0.0,0.0,0.0,,,,4.912204,4.146575,0.742643,0.0,0.0,0.950274,0.311416,0.0,-0.0,2.508227,-0.103106,-0.000634,-0.026015,0.095364,0.5,0.05,1.0,0.0,0.0,-0.80604,0.591861,0.0,2.508227,saw,0.03,1,13,16.1454,0,
bread_0017,bread_cutting,20c0fb33-4dda-4ff6-860f-e910db8454bf,bread_0017,1583314390,apartment,full_system,base_system,True,,,Knife,middle,1,shell_removal,knowledge_base,False,False,ok,cut,primary_success,False,shell_removal,False,False,False,True,pr2,success,RIGHT,knife_right,primary,1,0,0,False,False,False,,-0.128106,-0.049183,-0.029267,0.134048,0.047915,0.035765,0.262154,0.097098,0.065031,0.00165535,5.08525,3.406413,0.742643,map,0.0,0.0,0.0,0.0,,,,5.08525,3.406413,0.742643,0.0,0.0,-0.218131,0.975919,0.0,-0.0,-0.439799,-0.103106,-0.000634,-0.026015,0.095364,0.5,0.05,1.0,0.0,0.0,0.904837,-0.425757,0.0,-0.439799,saw,0.03,1,13,18.4771,0,
bread_0018,bread_cutting,20c0fb33-4dda-4ff6-860f-e910db8454bf,bread_0018,1583314390,apartment,full_system,base_system,True,,,Knife,middle,1,shell_removal,knowledge_base,False,False,ok,cut,primary_success,False,shell_removal,False,False,False,True,pr2,success,RIGHT,knife_right,primary,1,0,0,False,False,False,,-0.128106,-0.049183,-0.029267,0.134048,0.047915,0.035765,0.262154,0.097098,0.065031,0.00165535,4.82191,3.49438,0.742643,map,0.0,0.0,0.0,0.0,,,,4.82191,3.49438,0.742643,0.0,0.0,0.415619,0.909539,0.0,-0.0,0.857246,-0.103106,-0.000634,-0.026015,0.095364,0.5,0.05,1.0,0.0,0.0,0.654522,0.756043,0.0,0.857246,saw,0.03,1,13,18.6488,0,
bread_0001,bread_cutting,34138ce8-1c86-4f5e-8c69-6e041c383ba1,bread_0001,3043468577,kitchen,full_system,base_system,True,,,Knife,middle,1,shell_removal,knowledge_base,False,False,ok,rotate_object_and_retry,both_arms_failed_before_rotation,False,shell_removal,False,False,False,True,pr2,success,RIGHT,knife_right,after_rotation,3,2,2,True,True,True,z_rotation_180,-0.128106,-0.049183,-0.029267,0.134048,0.047915,0.035765,0.262154,0.097098,0.065031,0.00165535,1.504627,-0.218035,0.87,map,0.0,0.0,0.0,0.0,,,,1.504627,-0.218035,0.87,0.0,0.0,-0.431479,0.902123,0.0,-0.0,-0.892263,-0.103106,-0.000634,-0.026015,0.095364,0.5,0.05,1.0,0.0,0.0,0.627652,-0.778494,0.0,-0.892263,saw,0.03,1,13,35.4703,2,RIGHT primary -> CollisionError (reported as timeout): Timeout reached while waiting for end of motion. | LEFT primary -> CollisionError (reported as timeout): Timeout reached while waiting for end of motion.
bread_0002,bread_cutting,34138ce8-1c86-4f5e-8c69-6e041c383ba1,bread_0002,3043468577,kitchen,full_system,base_system,True,,,Knife,middle,1,shell_removal,knowledge_base,False,False,ok,cut,primary_success,False,shell_removal,False,False,False,True,pr2,success,RIGHT,knife_right,primary,1,0,0,False,False,False,,-0.128106,-0.049183,-0.029267,0.134048,0.047915,0.035765,0.262154,0.097098,0.065031,0.00165535,1.482228,1.202953,0.87,map,0.0,0.0,0.0,0.0,,,,1.482228,1.202953,0.87,0.0,0.0,0.037234,0.999307,0.0,-0.0,0.074485,-0.103106,-0.000634,-0.026015,0.095364,0.5,0.05,1.0,0.0,0.0,0.997227,0.074416,0.0,0.074485,saw,0.03,1,13,6.6752,0,
bread_0003,bread_cutting,34138ce8-1c86-4f5e-8c69-6e041c383ba1,bread_0003,3043468577,kitchen,full_system,base_system,True,,,Knife,middle,1,shell_removal,knowledge_base,False,False,prerequisite_requires_human_assistance,request_human_help,knowledge_base_prerequisite_detected,True,shell_removal,False,True,False,False,pr2,failed,,knife_left,after_rotation,4,3,4,True,False,True,z_rotation_180,-0.128106,-0.049183,-0.029267,0.134048,0.047915,0.035765,0.262154,0.097098,0.065031,0.00165535,1.569443,1.582273,0.87,map,0.0,0.0,0.0,0.0,,,,1.569443,1.582273,0.87,0.0,0.0,0.998828,-0.048399,0.0,-0.0,-3.044757,-0.103106,-0.000634,-0.026015,0.095364,0.5,0.05,1.0,0.0,0.0,-0.995315,-0.096684,0.0,-3.044757,saw,0.03,1,13,104.6972,4,RIGHT primary -> CollisionError (reported as timeout): Timeout reached while waiting for end of motion. | LEFT primary -> CollisionError (reported as timeout): Timeout reached while waiting for end of motion. | RIGHT after_rotation -> CollisionError (reported as timeout): Timeout reached while waiting for end of motion. | LEFT after_rotation -> CollisionError (reported as timeout): Timeout reached while waiting for end of motion.
bread_0004,bread_cutting,34138ce8-1c86-4f5e-8c69-6e041c383ba1,bread_0004,3043468577,kitchen,full_system,base_system,True,,,Knife,middle,1,shell_removal,knowledge_base,False,False,ok,cut,primary_success,False,shell_removal,False,False,False,True,pr2,success,RIGHT,knife_right,primary,1,0,0,False,False,False,,-0.128106,-0.049183,-0.029267,0.134048,0.047915,0.035765,0.262154,0.097098,0.065031,0.00165535,1.590382,0.754156,0.87,map,0.0,0.0,0.0,0.0,,,,1.590382,0.754156,0.87,0.0,0.0,-0.203057,0.979167,0.0,-0.0,-0.408958,-0.103106,-0.000634,-0.026015,0.095364,0.5,0.05,1.0,0.0,0.0,0.917536,-0.397653,0.0,-0.408958,saw,0.03,1,13,8.0828,0,
bread_0005,bread_cutting,34138ce8-1c86-4f5e-8c69-6e041c383ba1,bread_0005,3043468577,kitchen,full_system,base_system,True,,,Knife,middle,1,shell_removal,knowledge_base,False,False,ok,cut,primary_success,False,shell_removal,False,False,False,True,pr2,success,RIGHT,knife_right,primary,1,0,0,False,False,False,,-0.153728,-0.05902,-0.03512,0.160858,0.057498,0.042917,0.314585,0.116518,0.078038,0.00286045,1.543996,0.285201,0.87,map,0.0,0.0,0.0,0.0,,,,1.543996,0.285201,0.87,0.0,0.0,0.295863,0.95523,0.0,-0.0,0.600717,-0.128728,-0.000761,-0.031218,0.07947,0.5,0.05,1.0,0.0,0.0,0.824931,0.565234,0.0,0.600717,saw,0.03,1,13,10.2481,0,
bread_0006,bread_cutting,34138ce8-1c86-4f5e-8c69-6e041c383ba1,bread_0006,3043468577,kitchen,full_system,base_system,True,,,Knife,middle,1,shell_removal,knowledge_base,False,False,ok,cut,primary_success,False,shell_removal,False,False,False,True,pr2,success,RIGHT,knife_right,primary,1,0,0,False,False,False,,-0.153728,-0.05902,-0.03512,0.160858,0.057498,0.042917,0.314585,0.116518,0.078038,0.00286045,-1.114213,1.487159,0.881,map,0.0,0.0,0.0,0.0,,,,-1.114213,1.487159,0.881,0.0,0.0,-0.75528,0.655403,0.0,-0.0,-1.712161,-0.128728,-0.000761,-0.031218,0.07947,0.5,0.05,1.0,0.0,0.0,-0.140895,-0.990025,0.0,-1.712161,saw,0.03,1,13,6.489,0,
bread_0007,bread_cutting,34138ce8-1c86-4f5e-8c69-6e041c383ba1,bread_0007,3043468577,kitchen,full_system,base_system,True,,,Knife,middle,1,shell_removal,knowledge_base,False,False,ok,cut,primary_success,False,shell_removal,False,False,False,True,pr2,success,RIGHT,knife_right,primary,1,0,0,False,False,False,,-0.153728,-0.05902,-0.03512,0.160858,0.057498,0.042917,0.314585,0.116518,0.078038,0.00286045,-1.094062,0.825316,0.881,map,0.0,0.0,0.0,0.0,,,,-1.094062,0.825316,0.881,0.0,0.0,0.960172,-0.279408,0.0,-0.0,-2.575237,-0.128728,-0.000761,-0.031218,0.07947,0.5,0.05,1.0,0.0,0.0,-0.843862,-0.53656,0.0,-2.575237,saw,0.03,1,13,9.364,0,
bread_0008,bread_cutting,34138ce8-1c86-4f5e-8c69-6e041c383ba1,bread_0008,3043468577,kitchen,full_system,base_system,True,,,Knife,middle,1,shell_removal,knowledge_base,False,False,ok,cut,primary_success,False,shell_removal,False,False,False,True,pr2,success,RIGHT,knife_right,primary,1,0,0,False,False,False,,-0.179349,-0.068857,-0.040973,0.187667,0.067081,0.05007,0.367016,0.135937,0.091044,0.00454229,-1.147292,2.428818,0.881,map,0.0,0.0,0.0,0.0,,,,-1.147292,2.428818,0.881,0.0,0.0,0.28855,0.957465,0.0,-0.0,0.585424,-0.154349,-0.000888,-0.036421,0.068117,0.5,0.05,1.0,0.0,0.0,0.833478,0.552553,0.0,0.585424,saw,0.03,1,13,9.3035,0,
bread_0009,bread_cutting,34138ce8-1c86-4f5e-8c69-6e041c383ba1,bread_0009,3043468577,kitchen,full_system,base_system,True,,,Knife,middle,1,shell_removal,knowledge_base,False,False,ok,cut,primary_success,False,shell_removal,False,False,False,True,pr2,success,RIGHT,knife_right,primary,1,0,0,False,False,False,,-0.20497,-0.078693,-0.046827,0.214477,0.076664,0.057223,0.419447,0.155357,0.10405,0.00678033,-0.99633,1.935504,0.881,map,0.0,0.0,0.0,0.0,,,,-0.99633,1.935504,0.881,0.0,0.0,0.13244,0.991191,0.0,-0.0,0.26566,-0.17997,-0.001015,-0.041624,0.059602,0.5,0.05,1.0,0.0,0.0,0.964919,0.262546,0.0,0.26566,saw,0.03,1,13,13.295,0,
bread_0010,bread_cutting,34138ce8-1c86-4f5e-8c69-6e041c383ba1,bread_0010,3043468577,kitchen,full_system,base_system,True,,,Knife,middle,1,shell_removal,knowledge_base,False,False,prerequisite_requires_human_assistance,request_human_help,knowledge_base_prerequisite_detected,True,shell_removal,False,True,False,False,pr2,failed,,knife_left,after_rotation,4,3,4,True,False,True,z_rotation_180,-0.153728,-0.05902,-0.03512,0.160858,0.057498,0.042917,0.314585,0.116518,0.078038,0.00286045,-1.107666,2.89869,0.881,map,0.0,0.0,0.0,0.0,,,,-1.107666,2.89869,0.881,0.0,0.0,0.978361,-0.206906,0.0,-0.0,-2.72477,-0.128728,-0.000761,-0.031218,0.07947,0.5,0.05,1.0,0.0,0.0,-0.91438,-0.404857,0.0,-2.72477,saw,0.03,1,13,92.9171,4,RIGHT primary -> CollisionError (reported as timeout): Timeout reached while waiting for end of motion. | LEFT primary -> CollisionError (reported as timeout): Timeout reached while waiting for end of motion. | RIGHT after_rotation -> CollisionError (reported as timeout): Timeout reached while waiting for end of motion. | LEFT after_rotation -> CollisionError (reported as timeout): Timeout reached while waiting for end of motion.
bread_0011,bread_cutting,34138ce8-1c86-4f5e-8c69-6e041c383ba1,bread_0011,3043468577,kitchen,full_system,base_system,True,,,Knife,middle,1,shell_removal,knowledge_base,False,False,ok,cut,primary_success,False,shell_removal,False,False,False,True,pr2,success,RIGHT,knife_right,primary,1,0,0,False,False,False,,-0.128106,-0.049183,-0.029267,0.134048,0.047915,0.035765,0.262154,0.097098,0.065031,0.00165535,-0.910745,0.510394,0.881,map,0.0,0.0,0.0,0.0,,,,-0.910745,0.510394,0.881,0.0,0.0,-0.172195,0.985063,0.0,-0.0,-0.346115,-0.103106,-0.000634,-0.026015,0.095364,0.5,0.05,1.0,0.0,0.0,0.940698,-0.339246,0.0,-0.346115,saw,0.03,1,13,4.9488,0,
bread_0012,bread_cutting,34138ce8-1c86-4f5e-8c69-6e041c383ba1,bread_0012,3043468577,kitchen,full_system,base_system,True,,,Knife,middle,1,shell_removal,knowledge_base,False,False,ok,cut,primary_success,False,shell_removal,False,False,False,True,pr2,success,RIGHT,knife_right,primary,1,0,0,False,False,False,,-0.128106,-0.049183,-0.029267,0.134048,0.047915,0.035765,0.262154,0.097098,0.065031,0.00165535,-0.91889,1.172561,0.881,map,0.0,0.0,0.0,0.0,,,,-0.91889,1.172561,0.881,0.0,0.0,-0.165934,0.986137,0.0,-0.0,-0.333409,-0.103106,-0.000634,-0.026015,0.095364,0.5,0.05,1.0,0.0,0.0,0.944932,-0.327267,0.0,-0.333409,saw,0.03,1,13,10.2054,0,
bread_0001,bread_cutting,7c6d7cf6-d82c-461d-9882-0cd228e71d18,bread_0001,1122986606,isr-testbed,full_system,base_system,True,,,Knife,middle,1,shell_removal,knowledge_base,False,False,ok,rotate_object_and_retry,both_arms_failed_before_rotation,False,shell_removal,False,False,False,True,pr2,success,RIGHT,knife_right,after_rotation,3,2,2,True,True,True,z_rotation_180,-0.128106,-0.049183,-0.029267,0.134048,0.047915,0.035765,0.262154,0.097098,0.065031,0.00165535,1.500723,-2.363054,0.82,map,0.0,0.0,0.0,0.0,,,,1.500723,-2.363054,0.82,0.0,0.0,1.0,0.000185,0.0,-0.0,3.141223,-0.103106,-0.000634,-0.026015,0.095364,0.5,0.05,1.0,0.0,0.0,-1.0,0.000369,0.0,3.141223,saw,0.03,1,13,29.8804,2,RIGHT primary -> CollisionError (reported as timeout): Timeout reached while waiting for end of motion. | LEFT primary -> CollisionError (reported as timeout): Timeout reached while waiting for end of motion.
bread_0002,bread_cutting,7c6d7cf6-d82c-461d-9882-0cd228e71d18,bread_0002,1122986606,isr-testbed,full_system,base_system,True,,,Knife,middle,1,shell_removal,knowledge_base,False,False,prerequisite_requires_human_assistance,request_human_help,knowledge_base_prerequisite_detected,True,shell_removal,False,True,False,False,pr2,failed,,knife_left,after_rotation,4,3,4,True,False,True,z_rotation_180,-0.179349,-0.068857,-0.040973,0.187667,0.067081,0.05007,0.367016,0.135937,0.091044,0.00454229,1.943769,-2.352809,0.82,map,0.0,0.0,0.0,0.0,,,,1.943769,-2.352809,0.82,0.0,0.0,0.968514,-0.24896,0.0,-0.0,-2.638379,-0.154349,-0.000888,-0.036421,0.068117,0.5,0.05,1.0,0.0,0.0,-0.876038,-0.482243,0.0,-2.638379,saw,0.03,1,13,52.0883,4,RIGHT primary -> CollisionError (reported as timeout): Timeout reached while waiting for end of motion. | LEFT primary -> CollisionError (reported as timeout): Timeout reached while waiting for end of motion. | RIGHT after_rotation -> CollisionError (reported as timeout): Timeout reached while waiting for end of motion. | LEFT after_rotation -> CollisionError (reported as timeout): Timeout reached while waiting for end of motion.
bread_0003,bread_cutting,7c6d7cf6-d82c-461d-9882-0cd228e71d18,bread_0003,1122986606,isr-testbed,full_system,base_system,True,,,Knife,middle,1,shell_removal,knowledge_base,False,False,ok,rotate_object_and_retry,both_arms_failed_before_rotation,False,shell_removal,False,False,False,True,pr2,success,LEFT,knife_left,after_rotation,4,3,3,True,True,True,z_rotation_180,-0.153728,-0.05902,-0.03512,0.160858,0.057498,0.042917,0.314585,0.116518,0.078038,0.00286045,2.522676,-2.472388,0.82,map,0.0,0.0,0.0,0.0,,,,2.522676,-2.472388,0.82,0.0,0.0,0.890053,-0.455857,0.0,-0.0,-2.194922,-0.128728,-0.000761,-0.031218,0.07947,0.5,0.05,1.0,0.0,0.0,-0.584388,-0.811474,0.0,-2.194922,saw,0.03,1,13,60.6294,3,RIGHT primary -> CollisionError (reported as timeout): Timeout reached while waiting for end of motion. | LEFT primary -> CollisionError (reported as timeout): Timeout reached while waiting for end of motion. | RIGHT after_rotation -> CollisionError (reported as timeout): Timeout reached while waiting for end of motion.
bread_0004,bread_cutting,7c6d7cf6-d82c-461d-9882-0cd228e71d18,bread_0004,1122986606,isr-testbed,full_system,base_system,True,,,Knife,middle,1,shell_removal,knowledge_base,False,False,ok,rotate_object_and_retry,both_arms_failed_before_rotation,False,shell_removal,False,False,False,True,pr2,success,LEFT,knife_left,after_rotation,4,3,3,True,True,True,z_rotation_180,-0.128106,-0.049183,-0.029267,0.134048,0.047915,0.035765,0.262154,0.097098,0.065031,0.00165535,2.481703,-2.084327,0.82,map,0.0,0.0,0.0,0.0,,,,2.481703,-2.084327,0.82,0.0,0.0,0.192587,0.98128,0.0,-0.0,0.387595,-0.103106,-0.000634,-0.026015,0.095364,0.5,0.05,1.0,0.0,0.0,0.925821,0.377963,0.0,0.387595,saw,0.03,1,13,57.7516,3,RIGHT primary -> CollisionError (reported as timeout): Timeout reached while waiting for end of motion. | LEFT primary -> CollisionError (reported as timeout): Timeout reached while waiting for end of motion. | RIGHT after_rotation -> CollisionError (reported as timeout): Timeout reached while waiting for end of motion.
bread_0005,bread_cutting,7c6d7cf6-d82c-461d-9882-0cd228e71d18,bread_0005,1122986606,isr-testbed,full_system,base_system,True,,,Knife,middle,1,shell_removal,knowledge_base,False,False,ok,rotate_object_and_retry,both_arms_failed_before_rotation,False,shell_removal,False,False,False,True,pr2,success,RIGHT,knife_right,after_rotation,3,2,2,True,True,True,z_rotation_180,-0.128106,-0.049183,-0.029267,0.134048,0.047915,0.035765,0.262154,0.097098,0.065031,0.00165535,1.425244,-2.050161,0.82,map,0.0,0.0,0.0,0.0,,,,1.425244,-2.050161,0.82,0.0,0.0,0.578323,0.815808,0.0,-0.0,1.233342,-0.103106,-0.000634,-0.026015,0.095364,0.5,0.05,1.0,0.0,0.0,0.331086,0.943601,0.0,1.233342,saw,0.03,1,13,42.2487,2,RIGHT primary -> CollisionError (reported as timeout): Timeout reached while waiting for end of motion. | LEFT primary -> CollisionError (reported as timeout): Timeout reached while waiting for end of motion.
bread_0006,bread_cutting,7c6d7cf6-d82c-461d-9882-0cd228e71d18,bread_0006,1122986606,isr-testbed,full_system,base_system,True,,,Knife,middle,1,shell_removal,knowledge_base,False,False,prerequisite_requires_human_assistance,request_human_help,knowledge_base_prerequisite_detected,True,shell_removal,False,True,False,False,pr2,failed,,knife_left,after_rotation,4,3,4,True,False,True,z_rotation_180,-0.153728,-0.05902,-0.03512,0.160858,0.057498,0.042917,0.314585,0.116518,0.078038,0.00286045,2.160069,-0.191674,0.81,map,0.0,0.0,0.0,0.0,,,,2.160069,-0.191674,0.81,0.0,0.0,0.979015,0.203786,0.0,-0.0,2.731145,-0.128728,-0.000761,-0.031218,0.07947,0.5,0.05,1.0,0.0,0.0,-0.916942,0.39902,0.0,2.731145,saw,0.03,1,13,59.4794,4,RIGHT primary -> CollisionError (reported as timeout): Timeout reached while waiting for end of motion. | LEFT primary -> CollisionError (reported as timeout): Timeout reached while waiting for end of motion. | RIGHT after_rotation -> CollisionError (reported as timeout): Timeout reached while waiting for end of motion. | LEFT after_rotation -> CollisionError (reported as timeout): Timeout reached while waiting for end of motion.
bread_0007,bread_cutting,7c6d7cf6-d82c-461d-9882-0cd228e71d18,bread_0007,1122986606,isr-testbed,full_system,base_system,True,,,Knife,middle,1,shell_removal,knowledge_base,False,False,ok,cut,primary_success,False,shell_removal,False,False,False,True,pr2,success,RIGHT,knife_right,primary,1,0,0,False,False,False,,-0.128106,-0.049183,-0.029267,0.134048,0.047915,0.035765,0.262154,0.097098,0.065031,0.00165535,2.549103,-0.297933,0.81,map,0.0,0.0,0.0,0.0,,,,2.549103,-0.297933,0.81,0.0,0.0,0.294182,0.955749,0.0,-0.0,0.5972,-0.103106,-0.000634,-0.026015,0.095364,0.5,0.05,1.0,0.0,0.0,0.826913,0.562329,0.0,0.5972,saw,0.03,1,13,8.838,0,
bread_0008,bread_cutting,7c6d7cf6-d82c-461d-9882-0cd228e71d18,bread_0008,1122986606,isr-testbed,full_system,base_system,True,,,Knife,middle,1,shell_removal,knowledge_base,False,False,ok,cut,primary_success,False,shell_removal,False,False,False,True,pr2,success,RIGHT,knife_right,primary,1,0,0,False,False,False,,-0.153728,-0.05902,-0.03512,0.160858,0.057498,0.042917,0.314585,0.116518,0.078038,0.00286045,1.646999,-0.025661,0.81,map,0.0,0.0,0.0,0.0,,,,1.646999,-0.025661,0.81,0.0,0.0,-0.784449,0.620193,0.0,-0.0,-1.803615,-0.128728,-0.000761,-0.031218,0.07947,0.5,0.05,1.0,0.0,0.0,-0.230721,-0.97302,0.0,-1.803615,saw,0.03,1,13,9.7362,0,
bread_0009,bread_cutting,7c6d7cf6-d82c-461d-9882-0cd228e71d18,bread_0009,1122986606,isr-testbed,full_system,base_system,True,,,Knife,middle,1,shell_removal,knowledge_base,False,False,ok,cut,primary_success,False,shell_removal,False,False,False,True,pr2,success,RIGHT,knife_right,primary,1,0,0,False,False,False,,-0.20497,-0.078693,-0.046827,0.214477,0.076664,0.057223,0.419447,0.155357,0.10405,0.00678033,2.575399,0.096732,0.81,map,0.0,0.0,0.0,0.0,,,,2.575399,0.096732,0.81,0.0,0.0,0.996847,-0.079342,0.0,-0.0,-2.982742,-0.17997,-0.001015,-0.041624,0.059602,0.5,0.05,1.0,0.0,0.0,-0.98741,-0.158184,0.0,-2.982742,saw,0.03,1,13,10.9467,0,
bread_0010,bread_cutting,7c6d7cf6-d82c-461d-9882-0cd228e71d18,bread_0010,1122986606,isr-testbed,full_system,base_system,True,,,Knife,middle,1,shell_removal,knowledge_base,False,False,ok,cut,primary_success,False,shell_removal,False,False,False,True,pr2,success,RIGHT,knife_right,primary,1,0,0,False,False,False,,-0.128106,-0.049183,-0.029267,0.134048,0.047915,0.035765,0.262154,0.097098,0.065031,0.00165535,1.722606,-0.3898,0.81,map,0.0,0.0,0.0,0.0,,,,1.722606,-0.3898,0.81,0.0,0.0,0.341763,0.939786,0.0,-0.0,0.697583,-0.103106,-0.000634,-0.026015,0.095364,0.5,0.05,1.0,0.0,0.0,0.766397,0.642368,0.0,0.697583,saw,0.03,1,13,8.3529,0,
bread_0011,bread_cutting,7c6d7cf6-d82c-461d-9882-0cd228e71d18,bread_0011,1122986606,isr-testbed,full_system,base_system,True,,,Knife,middle,1,shell_removal,knowledge_base,False,False,ok,cut,primary_success,False,shell_removal,False,False,False,True,pr2,success,RIGHT,knife_right,primary,1,0,0,False,False,False,,-0.128106,-0.049183,-0.029267,0.134048,0.047915,0.035765,0.262154,0.097098,0.065031,0.00165535,1.17973,0.002719,0.81,map,0.0,0.0,0.0,0.0,,,,1.17973,0.002719,0.81,0.0,0.0,-0.697576,0.716511,0.0,-0.0,-1.544017,-0.103106,-0.000634,-0.026015,0.095364,0.5,0.05,1.0,0.0,0.0,0.026776,-0.999641,0.0,-1.544017,saw,0.03,1,13,8.9062,0,
bread_0012,bread_cutting,7c6d7cf6-d82c-461d-9882-0cd228e71d18,bread_0012,1122986606,isr-testbed,full_system,base_system,True,,,Knife,middle,1,shell_removal,knowledge_base,False,False,ok,cut,primary_success,False,shell_removal,False,False,False,True,pr2,success,RIGHT,knife_right,primary,1,0,0,False,False,False,,-0.128106,-0.049183,-0.029267,0.134048,0.047915,0.035765,0.262154,0.097098,0.065031,0.00165535,2.918531,-0.340962,0.81,map,0.0,0.0,0.0,0.0,,,,2.918531,-0.340962,0.81,0.0,0.0,-0.09866,0.995121,0.0,-0.0,-0.197642,-0.103106,-0.000634,-0.026015,0.095364,0.5,0.05,1.0,0.0,0.0,0.980532,-0.196358,0.0,-0.197642,saw,0.03,1,13,9.6355,0,
bread_0013,bread_cutting,7c6d7cf6-d82c-461d-9882-0cd228e71d18,bread_0013,1122986606,isr-testbed,full_system,base_system,True,,,Knife,middle,1,shell_removal,knowledge_base,False,False,ok,cut,primary_success,False,shell_removal,False,False,False,True,pr2,success,RIGHT,knife_right,primary,1,0,0,False,False,False,,-0.128106,-0.049183,-0.029267,0.134048,0.047915,0.035765,0.262154,0.097098,0.065031,0.00165535,1.187205,-0.331006,0.81,map,0.0,0.0,0.0,0.0,,,,1.187205,-0.331006,0.81,0.0,0.0,0.864317,0.502948,0.0,-0.0,2.087581,-0.103106,-0.000634,-0.026015,0.095364,0.5,0.05,1.0,0.0,0.0,-0.494087,0.869412,0.0,2.087581,saw,0.03,1,13,10.5851,0,
bread_0014,bread_cutting,7c6d7cf6-d82c-461d-9882-0cd228e71d18,bread_0014,1122986606,isr-testbed,full_system,base_system,True,,,Knife,middle,1,shell_removal,knowledge_base,False,False,ok,cut,primary_success,False,shell_removal,False,False,False,True,pr2,success,RIGHT,knife_right,primary,1,0,0,False,False,False,,-0.128106,-0.049183,-0.029267,0.134048,0.047915,0.035765,0.262154,0.097098,0.065031,0.00165535,1.990076,0.168095,0.81,map,0.0,0.0,0.0,0.0,,,,1.990076,0.168095,0.81,0.0,0.0,0.912803,0.4084,0.0,-0.0,2.300191,-0.103106,-0.000634,-0.026015,0.095364,0.5,0.05,1.0,0.0,0.0,-0.666418,0.745578,0.0,2.300191,saw,0.03,1,13,10.6503,0,
bread_0001,bread_cutting,f43c68c7-65ec-4fa8-92f5-b92b5c128d5d,bread_0001,2673977674,apartment,full_system,base_system,True,,,Knife,middle,1,shell_removal,knowledge_base,False,False,prerequisite_requires_human_assistance,request_human_help,knowledge_base_prerequisite_detected,True,shell_removal,False,True,False,False,pr2,failed,,knife_left,after_rotation,4,3,4,True,False,True,z_rotation_180,-0.128106,-0.049183,-0.029267,0.134048,0.047915,0.035765,0.262154,0.097098,0.065031,0.00165535,16.637926,2.683591,0.42,map,0.0,0.0,0.0,0.0,,,,16.637926,2.683591,0.42,0.0,0.0,-0.853668,0.520817,0.0,-0.0,-2.045976,-0.103106,-0.000634,-0.026015,0.095364,0.5,0.05,1.0,0.0,0.0,-0.457499,-0.88921,0.0,-2.045976,saw,0.03,1,13,61.2285,4,RIGHT primary -> CollisionError (reported as timeout): Timeout reached while waiting for end of motion. | LEFT primary -> CollisionError (reported as timeout): Timeout reached while waiting for end of motion. | RIGHT after_rotation -> CollisionError (reported as timeout): Timeout reached while waiting for end of motion. | LEFT after_rotation -> CollisionError (reported as timeout): Timeout reached while waiting for end of motion.
bread_0002,bread_cutting,f43c68c7-65ec-4fa8-92f5-b92b5c128d5d,bread_0002,2673977674,apartment,full_system,base_system,True,,,Knife,middle,1,shell_removal,knowledge_base,False,False,ok,cut,primary_success,False,shell_removal,False,False,False,True,pr2,success,RIGHT,knife_right,primary,1,0,0,False,False,False,,-0.153728,-0.05902,-0.03512,0.160858,0.057498,0.042917,0.314585,0.116518,0.078038,0.00286045,16.982677,2.864321,0.42,map,0.0,0.0,0.0,0.0,,,,16.982677,2.864321,0.42,0.0,0.0,0.653455,0.756966,0.0,-0.0,1.424278,-0.128728,-0.000761,-0.031218,0.07947,0.5,0.05,1.0,0.0,0.0,0.145994,0.989285,0.0,1.424278,saw,0.03,1,13,14.3676,0,
bread_0003,bread_cutting,f43c68c7-65ec-4fa8-92f5-b92b5c128d5d,bread_0003,2673977674,apartment,full_system,base_system,True,,,Knife,middle,1,shell_removal,knowledge_base,False,False,ok,cut,primary_success,False,shell_removal,False,False,False,True,pr2,success,RIGHT,knife_right,primary,1,0,0,False,False,False,,-0.128106,-0.049183,-0.029267,0.134048,0.047915,0.035765,0.262154,0.097098,0.065031,0.00165535,16.295557,2.695796,0.42,map,0.0,0.0,0.0,0.0,,,,16.295557,2.695796,0.42,0.0,0.0,0.971913,-0.235342,0.0,-0.0,-2.666452,-0.103106,-0.000634,-0.026015,0.095364,0.5,0.05,1.0,0.0,0.0,-0.889228,-0.457463,0.0,-2.666452,saw,0.03,1,13,12.713,0,
bread_0004,bread_cutting,f43c68c7-65ec-4fa8-92f5-b92b5c128d5d,bread_0004,2673977674,apartment,full_system,base_system,True,,,Knife,middle,1,shell_removal,knowledge_base,False,False,ok,cut,primary_success,False,shell_removal,False,False,False,True,pr2,success,RIGHT,knife_right,primary,1,0,0,False,False,False,,-0.128106,-0.049183,-0.029267,0.134048,0.047915,0.035765,0.262154,0.097098,0.065031,0.00165535,2.579601,2.194545,0.966814,map,0.0,0.0,0.0,0.0,,,,2.579601,2.194545,0.966814,0.0,0.0,0.566021,0.824391,0.0,-0.0,1.203342,-0.103106,-0.000634,-0.026015,0.095364,0.5,0.05,1.0,0.0,0.0,0.359241,0.933245,0.0,1.203342,saw,0.03,1,13,24.5657,0,
bread_0005,bread_cutting,f43c68c7-65ec-4fa8-92f5-b92b5c128d5d,bread_0005,2673977674,apartment,full_system,base_system,True,,,Knife,middle,1,shell_removal,knowledge_base,False,False,ok,cut,primary_success,False,shell_removal,False,False,False,True,pr2,success,RIGHT,knife_right,primary,1,0,0,False,False,False,,-0.128106,-0.049183,-0.029267,0.134048,0.047915,0.035765,0.262154,0.097098,0.065031,0.00165535,2.81759,3.861351,0.966814,map,0.0,0.0,0.0,0.0,,,,2.81759,3.861351,0.966814,0.0,0.0,0.483916,0.875115,0.0,-0.0,1.010247,-0.103106,-0.000634,-0.026015,0.095364,0.5,0.05,1.0,0.0,0.0,0.531651,0.846963,0.0,1.010247,saw,0.03,1,13,22.7823,0,
bread_0006,bread_cutting,f43c68c7-65ec-4fa8-92f5-b92b5c128d5d,bread_0006,2673977674,apartment,full_system,base_system,True,,,Knife,middle,1,shell_removal,knowledge_base,False,False,ok,cut,primary_success,False,shell_removal,False,False,False,True,pr2,success,RIGHT,knife_right,primary,1,0,0,False,False,False,,-0.20497,-0.078693,-0.046827,0.214477,0.076664,0.057223,0.419447,0.155357,0.10405,0.00678033,2.821553,1.580542,0.966814,map,0.0,0.0,0.0,0.0,,,,2.821553,1.580542,0.966814,0.0,0.0,0.71435,0.699789,0.0,-0.0,1.59139,-0.17997,-0.001015,-0.041624,0.059602,0.5,0.05,1.0,0.0,0.0,-0.020592,0.999788,0.0,1.59139,saw,0.03,1,13,32.1758,0,
bread_0007,bread_cutting,f43c68c7-65ec-4fa8-92f5-b92b5c128d5d,bread_0007,2673977674,apartment,full_system,base_system,True,,,Knife,middle,1,shell_removal,knowledge_base,False,False,ok,cut,primary_success,False,shell_removal,False,False,False,True,pr2,success,RIGHT,knife_right,primary,1,0,0,False,False,False,,-0.20497,-0.078693,-0.046827,0.214477,0.076664,0.057223,0.419447,0.155357,0.10405,0.00678033,2.864326,2.786817,0.966814,map,0.0,0.0,0.0,0.0,,,,2.864326,2.786817,0.966814,0.0,0.0,-0.611808,0.791007,0.0,-0.0,-1.316687,-0.17997,-0.001015,-0.041624,0.059602,0.5,0.05,1.0,0.0,0.0,0.251383,-0.967888,0.0,-1.316687,saw,0.03,1,13,37.9161,0,
bread_0008,bread_cutting,f43c68c7-65ec-4fa8-92f5-b92b5c128d5d,bread_0008,2673977674,apartment,full_system,base_system,True,,,Knife,middle,1,shell_removal,knowledge_base,False,False,ok,cut,primary_success,False,shell_removal,False,False,False,True,pr2,success,RIGHT,knife_right,primary,1,0,0,False,False,False,,-0.20497,-0.078693,-0.046827,0.214477,0.076664,0.057223,0.419447,0.155357,0.10405,0.00678033,2.648032,3.42468,0.966814,map,0.0,0.0,0.0,0.0,,,,2.648032,3.42468,0.966814,0.0,0.0,0.959709,-0.280997,0.0,-0.0,-2.571927,-0.17997,-0.001015,-0.041624,0.059602,0.5,0.05,1.0,0.0,0.0,-0.842081,-0.53935,0.0,-2.571927,saw,0.03,1,13,38.9009,0,
bread_0009,bread_cutting,f43c68c7-65ec-4fa8-92f5-b92b5c128d5d,bread_0009,2673977674,apartment,full_system,base_system,True,,,Knife,middle,1,shell_removal,knowledge_base,False,False,ok,cut,primary_success,False,shell_removal,False,False,False,True,pr2,success,RIGHT,knife_right,primary,1,0,0,False,False,False,,-0.128106,-0.049183,-0.029267,0.134048,0.047915,0.035765,0.262154,0.097098,0.065031,0.00165535,2.980736,2.351536,0.966814,map,0.0,0.0,0.0,0.0,,,,2.980736,2.351536,0.966814,0.0,0.0,0.533286,0.845935,0.0,-0.0,1.124961,-0.103106,-0.000634,-0.026015,0.095364,0.5,0.05,1.0,0.0,0.0,0.431211,0.902251,0.0,1.124961,saw,0.03,1,13,26.4906,0,
bread_0010,bread_cutting,f43c68c7-65ec-4fa8-92f5-b92b5c128d5d,bread_0010,2673977674,apartment,full_system,base_system,True,,,Knife,middle,1,shell_removal,knowledge_base,False,False,ok,cut,primary_success,False,shell_removal,False,False,False,True,pr2,success,RIGHT,knife_right,primary,1,0,0,False,False,False,,-0.128106,-0.049183,-0.029267,0.134048,0.047915,0.035765,0.262154,0.097098,0.065031,0.00165535,2.950337,2.049017,0.966814,map,0.0,0.0,0.0,0.0,,,,2.950337,2.049017,0.966814,0.0,0.0,-0.322522,0.946562,0.0,-0.0,-0.656785,-0.103106,-0.000634,-0.026015,0.095364,0.5,0.05,1.0,0.0,0.0,0.79196,-0.610574,0.0,-0.656785,saw,0.03,1,13,28.2863,0,
bread_0011,bread_cutting,f43c68c7-65ec-4fa8-92f5-b92b5c128d5d,bread_0011,2673977674,apartment,full_system,base_system,True,,,Knife,middle,1,shell_removal,knowledge_base,False,False,ok,cut,primary_success,False,shell_removal,False,False,False,True,pr2,success,RIGHT,knife_right,primary,1,0,0,False,False,False,,-0.128106,-0.049183,-0.029267,0.134048,0.047915,0.035765,0.262154,0.097098,0.065031,0.00165535,2.501692,3.82008,0.966814,map,0.0,0.0,0.0,0.0,,,,2.501692,3.82008,0.966814,0.0,0.0,0.865269,0.501308,0.0,-0.0,2.091373,-0.103106,-0.000634,-0.026015,0.095364,0.5,0.05,1.0,0.0,0.0,-0.497381,0.867532,0.0,2.091373,saw,0.03,1,13,25.7111,0,
bread_0012,bread_cutting,f43c68c7-65ec-4fa8-92f5-b92b5c128d5d,bread_0012,2673977674,apartment,full_system,base_system,True,,,Knife,middle,1,shell_removal,knowledge_base,False,False,ok,cut,primary_success,False,shell_removal,False,False,False,True,pr2,success,RIGHT,knife_right,primary,1,0,0,False,False,False,,-0.128106,-0.049183,-0.029267,0.134048,0.047915,0.035765,0.262154,0.097098,0.065031,0.00165535,2.989041,3.172487,0.966814,map,0.0,0.0,0.0,0.0,,,,2.989041,3.172487,0.966814,0.0,0.0,0.995642,-0.09326,0.0,-0.0,-2.954802,-0.103106,-0.000634,-0.026015,0.095364,0.5,0.05,1.0,0.0,0.0,-0.982605,-0.185707,0.0,-2.954802,saw,0.03,1,13,23.5643,0,
bread_0013,bread_cutting,f43c68c7-65ec-4fa8-92f5-b92b5c128d5d,bread_0013,2673977674,apartment,full_system,base_system,True,,,Knife,middle,1,shell_removal,knowledge_base,False,False,prerequisite_requires_human_assistance,request_human_help,knowledge_base_prerequisite_detected,True,shell_removal,False,True,False,False,pr2,failed,,knife_left,after_rotation,4,3,4,True,False,True,z_rotation_180,-0.179349,-0.068857,-0.040973,0.187667,0.067081,0.05007,0.367016,0.135937,0.091044,0.00454229,0.306335,3.386562,0.9405,map,0.0,0.0,0.0,0.0,,,,0.306335,3.386562,0.9405,0.0,0.0,0.944674,0.328011,0.0,-0.0,2.473199,-0.154349,-0.000888,-0.036421,0.068117,0.5,0.05,1.0,0.0,0.0,-0.784818,0.619726,0.0,2.473199,saw,0.03,1,13,307.1043,4,RIGHT primary -> CollisionError (reported as timeout): Timeout reached while waiting for end of motion. | LEFT primary -> CollisionError (reported as timeout): Timeout reached while waiting for end of motion. | RIGHT after_rotation -> CollisionError (reported as timeout): Timeout reached while waiting for end of motion. | LEFT after_rotation -> CollisionError (reported as timeout): Timeout reached while waiting for end of motion.
bread_0014,bread_cutting,f43c68c7-65ec-4fa8-92f5-b92b5c128d5d,bread_0014,2673977674,apartment,full_system,base_system,True,,,Knife,middle,1,shell_removal,knowledge_base,False,False,prerequisite_requires_human_assistance,request_human_help,knowledge_base_prerequisite_detected,True,shell_removal,False,True,False,False,pr2,failed,,knife_left,after_rotation,4,3,4,True,False,True,z_rotation_180,-0.128106,-0.049183,-0.029267,0.134048,0.047915,0.035765,0.262154,0.097098,0.065031,0.00165535,0.277661,3.003822,0.9405,map,0.0,0.0,0.0,0.0,,,,0.277661,3.003822,0.9405,0.0,0.0,0.727461,0.686149,0.0,-0.0,1.629227,-0.103106,-0.000634,-0.026015,0.095364,0.5,0.05,1.0,0.0,0.0,-0.058398,0.998293,0.0,1.629227,saw,0.03,1,13,151.0088,4,RIGHT primary -> CollisionError (reported as timeout): Timeout reached while waiting for end of motion. | LEFT primary -> CollisionError (reported as timeout): Timeout reached while waiting for end of motion. | RIGHT after_rotation -> CollisionError (reported as timeout): Timeout reached while waiting for end of motion. | LEFT after_rotation -> CollisionError (reported as timeout): Timeout reached while waiting for end of motion.
bread_0015,bread_cutting,f43c68c7-65ec-4fa8-92f5-b92b5c128d5d,bread_0015,2673977674,apartment,full_system,base_system,True,,,Knife,middle,1,shell_removal,knowledge_base,False,False,ok,cut,primary_success,False,shell_removal,False,False,False,True,pr2,success,RIGHT,knife_right,primary,1,0,0,False,False,False,,-0.179349,-0.068857,-0.040973,0.187667,0.067081,0.05007,0.367016,0.135937,0.091044,0.00454229,4.98737,4.041698,0.742643,map,0.0,0.0,0.0,0.0,,,,4.98737,4.041698,0.742643,0.0,0.0,0.298294,0.954474,0.0,-0.0,0.60581,-0.154349,-0.000888,-0.036421,0.068117,0.5,0.05,1.0,0.0,0.0,0.822041,0.569429,0.0,0.60581,saw,0.03,1,13,10.4883,0,
bread_0016,bread_cutting,f43c68c7-65ec-4fa8-92f5-b92b5c128d5d,bread_0016,2673977674,apartment,full_system,base_system,True,,,Knife,middle,1,shell_removal,knowledge_base,False,False,ok,cut,primary_success,False,shell_removal,False,False,False,True,pr2,success,RIGHT,knife_right,primary,1,0,0,False,False,False,,-0.128106,-0.049183,-0.029267,0.134048,0.047915,0.035765,0.262154,0.097098,0.065031,0.00165535,4.942709,3.585714,0.742643,map,0.0,0.0,0.0,0.0,,,,4.942709,3.585714,0.742643,0.0,0.0,-0.002529,0.999997,0.0,-0.0,-0.005058,-0.103106,-0.000634,-0.026015,0.095364,0.5,0.05,1.0,0.0,0.0,0.999987,-0.005058,0.0,-0.005058,saw,0.03,1,13,12.4575,0,
bread_0017,bread_cutting,f43c68c7-65ec-4fa8-92f5-b92b5c128d5d,bread_0017,2673977674,apartment,full_system,base_system,True,,,Knife,middle,1,shell_removal,knowledge_base,False,False,ok,cut,primary_success,False,shell_removal,False,False,False,True,pr2,success,RIGHT,knife_right,primary,1,0,0,False,False,False,,-0.128106,-0.049183,-0.029267,0.134048,0.047915,0.035765,0.262154,0.097098,0.065031,0.00165535,5.091727,4.522924,0.742643,map,0.0,0.0,0.0,0.0,,,,5.091727,4.522924,0.742643,0.0,0.0,0.723647,0.69017,0.0,-0.0,1.618145,-0.103106,-0.000634,-0.026015,0.095364,0.5,0.05,1.0,0.0,0.0,-0.047331,0.998879,0.0,1.618145,saw,0.03,1,13,8.4603,0,
bread_0001,bread_cutting,f9524c1c-8bef-41c0-b860-9e4319cc2cac,bread_0001,2055079290,apartment,full_system,base_system,True,,,Knife,middle,1,shell_removal,knowledge_base,False,False,ok,cut,primary_success,False,shell_removal,False,False,False,True,pr2,success,RIGHT,knife_right,primary,1,0,0,False,False,False,,-0.20497,-0.078693,-0.046827,0.214477,0.076664,0.057223,0.419447,0.155357,0.10405,0.00678033,16.755855,2.781682,0.42,map,0.0,0.0,0.0,0.0,,,,16.755855,2.781682,0.42,0.0,0.0,0.857262,0.51488,0.0,-0.0,2.059856,-0.17997,-0.001015,-0.041624,0.059602,0.5,0.05,1.0,0.0,0.0,-0.469796,0.882775,0.0,2.059856,saw,0.03,1,13,8.2176,0,
bread_0001,bread_cutting,40b098a5-7f7c-49a9-90f0-5c855bc4dfa3,bread_0001,515165132,apartment,full_system,base_system,True,,,Knife,middle,1,shell_removal,knowledge_base,False,False,ok,cut,primary_success,False,shell_removal,False,False,False,True,pr2,success,RIGHT,knife_right,primary,1,0,0,False,False,False,,-0.128106,-0.049183,-0.029267,0.134048,0.047915,0.035765,0.262154,0.097098,0.065031,0.00165535,2.964289,2.013721,0.966814,map,0.0,0.0,0.0,0.0,,,,2.964289,2.013721,0.966814,0.0,0.0,0.771235,0.63655,0.0,-0.0,1.761559,-0.103106,-0.000634,-0.026015,0.095364,0.5,0.05,1.0,0.0,0.0,-0.189608,0.98186,0.0,1.761559,saw,0.03,4,13,11.574,0,
bread_0002,bread_cutting,40b098a5-7f7c-49a9-90f0-5c855bc4dfa3,bread_0002,515165132,apartment,full_system,base_system,True,,,Knife,middle,1,shell_removal,knowledge_base,False,False,prerequisite_requires_human_assistance,request_human_help,knowledge_base_prerequisite_detected,True,shell_removal,False,True,False,False,pr2,failed,,knife_left,after_rotation,4,3,4,True,False,True,z_rotation_180,-0.179349,-0.068857,-0.040973,0.187667,0.067081,0.05007,0.367016,0.135937,0.091044,0.00454229,2.587258,3.656155,0.966814,map,0.0,0.0,0.0,0.0,,,,2.587258,3.656155,0.966814,0.0,0.0,0.978379,0.206818,0.0,-0.0,2.72495,-0.154349,-0.000888,-0.036421,0.068117,0.5,0.05,1.0,0.0,0.0,-0.914453,0.404692,0.0,2.72495,saw,0.03,4,13,219.4431,4,RIGHT primary -> CollisionError (reported as timeout): Timeout reached while waiting for end of motion. | LEFT primary -> CollisionError (reported as timeout): Timeout reached while waiting for end of motion. | RIGHT after_rotation -> CollisionError (reported as timeout): Timeout reached while waiting for end of motion. | LEFT after_rotation -> CollisionError (reported as timeout): Timeout reached while waiting for end of motion.
bread_0003,bread_cutting,40b098a5-7f7c-49a9-90f0-5c855bc4dfa3,bread_0003,515165132,apartment,full_system,base_system,True,,,Knife,middle,1,shell_removal,knowledge_base,False,False,ok,cut,primary_success,False,shell_removal,False,False,False,True,pr2,success,RIGHT,knife_right,primary,1,0,0,False,False,False,,-0.153728,-0.05902,-0.03512,0.160858,0.057498,0.042917,0.314585,0.116518,0.078038,0.00286045,2.588955,1.50708,0.966814,map,0.0,0.0,0.0,0.0,,,,2.588955,1.50708,0.966814,0.0,0.0,-0.286295,0.958142,0.0,-0.0,-0.580715,-0.128728,-0.000761,-0.031218,0.07947,0.5,0.05,1.0,0.0,0.0,0.83607,-0.548622,0.0,-0.580715,saw,0.03,4,13,47.0581,0,
bread_0004,bread_cutting,40b098a5-7f7c-49a9-90f0-5c855bc4dfa3,bread_0004,515165132,apartment,full_system,base_system,True,,,Knife,middle,1,shell_removal,knowledge_base,False,False,ok,rotate_object_and_retry,both_arms_failed_before_rotation,False,shell_removal,False,False,False,True,pr2,success,RIGHT,knife_right,after_rotation,3,2,2,True,True,True,z_rotation_180,-0.20497,-0.078693,-0.046827,0.214477,0.076664,0.057223,0.419447,0.155357,0.10405,0.00678033,2.861775,3.202039,0.966814,map,0.0,0.0,0.0,0.0,,,,2.861775,3.202039,0.966814,0.0,0.0,-0.108846,0.994059,0.0,-0.0,-0.218125,-0.17997,-0.001015,-0.041624,0.059602,0.5,0.05,1.0,0.0,0.0,0.976305,-0.216399,0.0,-0.218125,saw,0.03,4,13,161.5458,2,RIGHT primary -> CollisionError (reported as timeout): Timeout reached while waiting for end of motion. | LEFT primary -> CollisionError (reported as timeout): Timeout reached while waiting for end of motion.
bread_0005,bread_cutting,40b098a5-7f7c-49a9-90f0-5c855bc4dfa3,bread_0005,515165132,apartment,full_system,base_system,True,,,Knife,middle,1,shell_removal,knowledge_base,False,False,ok,rotate_object_and_retry,both_arms_failed_before_rotation,False,shell_removal,False,False,False,True,pr2,success,RIGHT,knife_right,after_rotation,3,2,2,True,True,True,z_rotation_180,-0.179349,-0.068857,-0.040973,0.187667,0.067081,0.05007,0.367016,0.135937,0.091044,0.00454229,2.648725,2.746954,0.966814,map,0.0,0.0,0.0,0.0,,,,2.648725,2.746954,0.966814,0.0,0.0,0.952135,-0.305677,0.0,-0.0,-2.520293,-0.154349,-0.000888,-0.036421,0.068117,0.5,0.05,1.0,0.0,0.0,-0.813123,-0.582092,0.0,-2.520293,saw,0.03,4,13,171.4527,2,RIGHT primary -> CollisionError (reported as timeout): Timeout reached while waiting for end of motion. | LEFT primary -> CollisionError (reported as timeout): Timeout reached while waiting for end of motion.
bread_0006,bread_cutting,40b098a5-7f7c-49a9-90f0-5c855bc4dfa3,bread_0006,515165132,apartment,full_system,base_system,True,,,Knife,middle,1,shell_removal,knowledge_base,False,False,ok,cut,primary_success,False,shell_removal,False,False,False,True,pr2,success,RIGHT,knife_right,primary,1,0,0,False,False,False,,-0.153728,-0.05902,-0.03512,0.160858,0.057498,0.042917,0.314585,0.116518,0.078038,0.00286045,2.58308,2.300705,0.966814,map,0.0,0.0,0.0,0.0,,,,2.58308,2.300705,0.966814,0.0,0.0,-0.266163,0.963928,0.0,-0.0,-0.538821,-0.128728,-0.000761,-0.031218,0.07947,0.5,0.05,1.0,0.0,0.0,0.858314,-0.513124,0.0,-0.538821,saw,0.03,4,13,32.1321,0,
bread_0001,bread_cutting,63d4050f-c4b8-4663-908e-153d814e2c4b,bread_0001,1516942789,suturo,full_system,base_system,True,,,Knife,middle,1,shell_removal,knowledge_base,False,False,ok,cut,primary_success,False,shell_removal,False,False,False,True,pr2,success,RIGHT,knife_right,primary,1,0,0,False,False,False,,-0.20497,-0.078693,-0.046827,0.214477,0.076664,0.057223,0.419447,0.155357,0.10405,0.00678033,0.00752,-0.002168,0.727175,map,0.0,0.0,0.0,0.0,,,,0.00752,-0.002168,0.727175,0.0,0.0,-0.626814,0.779169,0.0,-0.0,-1.354915,-0.17997,-0.001015,-0.041624,0.059602,0.5,0.05,1.0,0.0,0.0,0.214208,-0.976788,0.0,-1.354915,saw,0.03,4,13,12.1958,0,
bread_0001,bread_cutting,d521ac8b-8b15-4fe2-89ff-e6c6dab137bd,bread_0001,3333889212,apartment,full_system,base_system,True,,,Knife,middle,1,shell_removal,knowledge_base,False,False,ok,cut,primary_success,False,shell_removal,False,False,False,True,pr2,success,RIGHT,knife_right,primary,1,0,0,False,False,False,,-0.179349,-0.068857,-0.040973,0.187667,0.067081,0.05007,0.367016,0.135937,0.091044,0.00454229,2.852697,1.461159,0.966814,map,0.0,0.0,0.0,0.0,,,,2.852697,1.461159,0.966814,0.0,0.0,0.090839,0.995866,0.0,-0.0,0.181929,-0.154349,-0.000888,-0.036421,0.068117,0.5,0.05,1.0,0.0,0.0,0.983497,0.180927,0.0,0.181929,saw,0.03,4,13,15.5424,0,
bread_0002,bread_cutting,d521ac8b-8b15-4fe2-89ff-e6c6dab137bd,bread_0002,3333889212,apartment,full_system,base_system,True,,,Knife,middle,1,shell_removal,knowledge_base,False,False,ok,cut,primary_success,False,shell_removal,False,False,False,True,pr2,success,RIGHT,knife_right,primary,1,0,0,False,False,False,,-0.20497,-0.078693,-0.046827,0.214477,0.076664,0.057223,0.419447,0.155357,0.10405,0.00678033,2.707854,2.881698,0.966814,map,0.0,0.0,0.0,0.0,,,,2.707854,2.881698,0.966814,0.0,0.0,-0.379576,0.92516,0.0,-0.0,-0.778677,-0.17997,-0.001015,-0.041624,0.059602,0.5,0.05,1.0,0.0,0.0,0.711844,-0.702338,0.0,-0.778677,saw,0.03,4,13,54.474,0,
bread_0003,bread_cutting,d521ac8b-8b15-4fe2-89ff-e6c6dab137bd,bread_0003,3333889212,apartment,full_system,base_system,True,,,Knife,middle,1,shell_removal,knowledge_base,False,False,ok,cut,primary_success,False,shell_removal,False,False,False,True,pr2,success,RIGHT,knife_right,primary,1,0,0,False,False,False,,-0.20497,-0.078693,-0.046827,0.214477,0.076664,0.057223,0.419447,0.155357,0.10405,0.00678033,2.733767,3.907892,0.966814,map,0.0,0.0,0.0,0.0,,,,2.733767,3.907892,0.966814,0.0,0.0,-0.749562,0.661934,0.0,-0.0,-1.694801,-0.17997,-0.001015,-0.041624,0.059602,0.5,0.05,1.0,0.0,0.0,-0.123688,-0.992321,0.0,-1.694801,saw,0.03,4,13,64.6908,0,
bread_0004,bread_cutting,d521ac8b-8b15-4fe2-89ff-e6c6dab137bd,bread_0004,3333889212,apartment,full_system,base_system,True,,,Knife,middle,1,shell_removal,knowledge_base,False,False,ok,cut,primary_success,False,shell_removal,False,False,False,True,pr2,success,RIGHT,knife_right,primary,1,0,0,False,False,False,,-0.128106,-0.049183,-0.029267,0.134048,0.047915,0.035765,0.262154,0.097098,0.065031,0.00165535,2.543566,2.247553,0.966814,map,0.0,0.0,0.0,0.0,,,,2.543566,2.247553,0.966814,0.0,0.0,0.900484,0.434889,0.0,-0.0,2.241763,-0.103106,-0.000634,-0.026015,0.095364,0.5,0.05,1.0,0.0,0.0,-0.621743,0.783221,0.0,2.241763,saw,0.03,4,13,64.4865,0,
bread_0005,bread_cutting,d521ac8b-8b15-4fe2-89ff-e6c6dab137bd,bread_0005,3333889212,apartment,full_system,base_system,True,,,Knife,middle,1,shell_removal,knowledge_base,False,False,ok,rotate_object_and_retry,both_arms_failed_before_rotation,False,shell_removal,False,False,False,True,pr2,success,RIGHT,knife_right,after_rotation,3,2,2,True,True,True,z_rotation_180,-0.179349,-0.068857,-0.040973,0.187667,0.067081,0.05007,0.367016,0.135937,0.091044,0.00454229,2.645597,3.425229,0.966814,map,0.0,0.0,0.0,0.0,,,,2.645597,3.425229,0.966814,0.0,0.0,0.94383,-0.330431,0.0,-0.0,-2.468073,-0.154349,-0.000888,-0.036421,0.068117,0.5,0.05,1.0,0.0,0.0,-0.781631,-0.623741,0.0,-2.468073,saw,0.03,4,13,271.3714,2,RIGHT primary -> CollisionError (reported as timeout): Timeout reached while waiting for end of motion. | LEFT primary -> CollisionError (reported as timeout): Timeout reached while waiting for end of motion.
bread_0006,bread_cutting,d521ac8b-8b15-4fe2-89ff-e6c6dab137bd,bread_0006,3333889212,apartment,full_system,base_system,True,,,Knife,middle,1,shell_removal,knowledge_base,False,False,ok,rotate_object_and_retry,both_arms_failed_before_rotation,False,shell_removal,False,False,False,True,pr2,success,RIGHT,knife_right,after_rotation,3,2,2,True,True,True,z_rotation_180,-0.153728,-0.05902,-0.03512,0.160858,0.057498,0.042917,0.314585,0.116518,0.078038,0.00286045,2.733801,1.973174,0.966814,map,0.0,0.0,0.0,0.0,,,,2.733801,1.973174,0.966814,0.0,0.0,0.892018,-0.452,0.0,-0.0,-2.20358,-0.128728,-0.000761,-0.031218,0.07947,0.5,0.05,1.0,0.0,0.0,-0.591392,-0.806384,0.0,-2.20358,saw,0.03,4,13,136.7522,2,RIGHT primary -> CollisionError (reported as timeout): Timeout reached while waiting for end of motion. | LEFT primary -> CollisionError (reported as timeout): Timeout reached while waiting for end of motion.
bread_0007,bread_cutting,d521ac8b-8b15-4fe2-89ff-e6c6dab137bd,bread_0007,3333889212,apartment,full_system,base_system,True,,,Knife,middle,1,shell_removal,knowledge_base,False,False,ok,cut,primary_success,False,shell_removal,False,False,False,True,pr2,success,RIGHT,knife_right,primary,1,0,0,False,False,False,,-0.128106,-0.049183,-0.029267,0.134048,0.047915,0.035765,0.262154,0.097098,0.065031,0.00165535,2.886495,2.443424,0.966814,map,0.0,0.0,0.0,0.0,,,,2.886495,2.443424,0.966814,0.0,0.0,0.948397,0.317086,0.0,-0.0,2.496281,-0.103106,-0.000634,-0.026015,0.095364,0.5,0.05,1.0,0.0,0.0,-0.798912,0.601447,0.0,2.496281,saw,0.03,4,13,18.3502,0,
bread_0001,bread_cutting,bb4fe697-3a99-4a9c-978f-822fff67915b,bread_0001,2479855441,apartment,full_system,base_system,True,,,Knife,middle,1,shell_removal,knowledge_base,False,False,ok,cut,primary_success,False,shell_removal,False,False,False,True,pr2,success,RIGHT,knife_right,primary,1,0,0,False,False,False,,-0.128106,-0.049183,-0.029267,0.134048,0.047915,0.035765,0.262154,0.097098,0.065031,0.00165535,2.522398,3.319267,0.966814,map,0.0,0.0,0.0,0.0,,,,2.522398,3.319267,0.966814,0.0,0.0,-0.71434,0.699798,0.0,-0.0,-1.591362,-0.103106,-0.000634,-0.026015,0.095364,0.5,0.05,1.0,0.0,0.0,-0.020564,-0.999789,0.0,-1.591362,saw,0.03,4,13,13.1668,0,
bread_0002,bread_cutting,bb4fe697-3a99-4a9c-978f-822fff67915b,bread_0002,2479855441,apartment,full_system,base_system,True,,,Knife,middle,1,shell_removal,knowledge_base,False,False,ok,cut,primary_success,False,shell_removal,False,False,False,True,pr2,success,RIGHT,knife_right,primary,1,0,0,False,False,False,,-0.128106,-0.049183,-0.029267,0.134048,0.047915,0.035765,0.262154,0.097098,0.065031,0.00165535,2.960224,3.658254,0.966814,map,0.0,0.0,0.0,0.0,,,,2.960224,3.658254,0.966814,0.0,0.0,0.269545,0.962988,0.0,-0.0,0.545841,-0.103106,-0.000634,-0.026015,0.095364,0.5,0.05,1.0,0.0,0.0,0.854691,0.519137,0.0,0.545841,saw,0.03,4,13,28.9333,0,
bread_0003,bread_cutting,bb4fe697-3a99-4a9c-978f-822fff67915b,bread_0003,2479855441,apartment,full_system,base_system,True,,,Knife,middle,1,shell_removal,knowledge_base,False,False,ok,cut,primary_success,False,shell_removal,False,False,False,True,pr2,success,RIGHT,knife_right,primary,1,0,0,False,False,False,,-0.128106,-0.049183,-0.029267,0.134048,0.047915,0.035765,0.262154,0.097098,0.065031,0.00165535,2.546224,4.067658,0.966814,map,0.0,0.0,0.0,0.0,,,,2.546224,4.067658,0.966814,0.0,0.0,0.997501,-0.070648,0.0,-0.0,-3.000179,-0.103106,-0.000634,-0.026015,0.095364,0.5,0.05,1.0,0.0,0.0,-0.990018,-0.140943,0.0,-3.000179,saw,0.03,4,13,39.2151,0,
