bread_name,task_name,run_id,task_instance_id,seed,world_name,experiment_condition,baseline_name,knowledge_query_success,knowledge_query_error,knowledge_prior_task,knowledge_cutting_tool,knowledge_cutting_position,knowledge_repetition,required_prerequisite,prerequisite_source,prerequisite_satisfied_initially,autonomous_execution_feasible,feasibility_reason,robot_decision,decision_reason,assistance_requested,assistance_type,assistance_completed,task_blocked_by_prerequisite,task_resumed_after_assistance,final_success,robot_name,outcome,succeeded_arm,tool_name,phase,total_attempts,retry_count,collision_failure_count,recovery_used,recovery_success,perturbation_applied,perturbation_type,object_aabb_min_x,object_aabb_min_y,object_aabb_min_z,object_aabb_max_x,object_aabb_max_y,object_aabb_max_z,object_size_x,object_size_y,object_size_z,object_volume_aabb,target_world_x,target_world_y,target_world_z,support_surface_name,support_world_x,support_world_y,support_world_z,support_yaw_rad,support_size_x,support_size_y,support_size_z,object_world_x,object_world_y,object_world_z,object_quat_x,object_quat_y,object_quat_z,object_quat_w,object_roll_rad,object_pitch_rad,object_yaw_rad,anchor_local_x,anchor_local_y,anchor_local_z,anchor_norm_x,anchor_norm_y,anchor_norm_z,cut_normal_local_x,cut_normal_local_y,cut_normal_local_z,cut_normal_world_x,cut_normal_world_y,cut_normal_world_z,cut_normal_world_yaw_rad,technique_name,slice_thickness_m,num_cuts_x,pointer_stride,execution_time_s,failure_count,failure_reasons
bread_0001,bread_cutting,8e6fa1ae-d6a5-4fec-b3e6-9e70df27249e,bread_0001,2161361361,apartment,full_system,base_system,True,,,Knife,middle,1,shell_removal,knowledge_base,False,False,ok,rotate_object_and_retry,both_arms_failed_before_rotation,False,shell_removal,False,False,False,True,pr2,success,LEFT,knife_left,after_rotation,4,3,3,True,True,True,z_rotation_180,-0.128106,-0.049183,-0.029267,0.134048,0.047915,0.035765,0.262154,0.097098,0.065031,0.00165535,2.567222,3.713293,0.966814,map,0.0,0.0,0.0,0.0,,,,2.567222,3.713293,0.966814,0.0,0.0,-0.619673,0.78486,0.0,-0.0,-1.336651,-0.103106,-0.000634,-0.026015,0.095364,0.5,0.05,1.0,0.0,0.0,0.232012,-0.972713,0.0,-1.336651,saw,0.03,4,13,189.8534,3,RIGHT primary -> CollisionError (reported as timeout): Timeout reached while waiting for end of motion. | LEFT primary -> CollisionError (reported as timeout): Timeout reached while waiting for end of motion. | RIGHT after_rotation -> CollisionError (reported as timeout): Timeout reached while waiting for end of motion.
bread_0002,bread_cutting,8e6fa1ae-d6a5-4fec-b3e6-9e70df27249e,bread_0002,2161361361,apartment,full_system,base_system,True,,,Knife,middle,1,shell_removal,knowledge_base,False,False,ok,cut,primary_success,False,shell_removal,False,False,False,True,pr2,success,RIGHT,knife_right,primary,1,0,0,False,False,False,,-0.179349,-0.068857,-0.040973,0.187667,0.067081,0.05007,0.367016,0.135937,0.091044,0.00454229,2.644443,1.475902,0.966814,map,0.0,0.0,0.0,0.0,,,,2.644443,1.475902,0.966814,0.0,0.0,-0.300799,0.953688,0.0,-0.0,-0.611061,-0.154349,-0.000888,-0.036421,0.068117,0.5,0.05,1.0,0.0,0.0,0.81904,-0.573736,0.0,-0.611061,saw,0.03,4,13,28.9417,0,
bread_0003,bread_cutting,8e6fa1ae-d6a5-4fec-b3e6-9e70df27249e,bread_0003,2161361361,apartment,full_system,base_system,True,,,Knife,middle,1,shell_removal,knowledge_base,False,False,ok,cut,primary_success,False,shell_removal,False,False,False,True,pr2,success,RIGHT,knife_right,primary,1,0,0,False,False,False,,-0.153728,-0.05902,-0.03512,0.160858,0.057498,0.042917,0.314585,0.116518,0.078038,0.00286045,2.620262,2.849796,0.966814,map,0.0,0.0,0.0,0.0,,,,2.620262,2.849796,0.966814,0.0,0.0,-0.22878,0.973478,0.0,-0.0,-0.461648,-0.128728,-0.000761,-0.031218,0.07947,0.5,0.05,1.0,0.0,0.0,0.89532,-0.445424,0.0,-0.461648,saw,0.03,4,13,70.3019,0,
bread_0004,bread_cutting,8e6fa1ae-d6a5-4fec-b3e6-9e70df27249e,bread_0004,2161361361,apartment,full_system,base_system,True,,,Knife,middle,1,shell_removal,knowledge_base,False,False,ok,cut,primary_success,False,shell_removal,False,False,False,True,pr2,success,RIGHT,knife_right,primary,1,0,0,False,False,False,,-0.128106,-0.049183,-0.029267,0.134048,0.047915,0.035765,0.262154,0.097098,0.065031,0.00165535,2.803195,2.40261,0.966814,map,0.0,0.0,0.0,0.0,,,,2.803195,2.40261,0.966814,0.0,0.0,0.28218,0.959361,0.0,-0.0,0.572132,-0.103106,-0.000634,-0.026015,0.095364,0.5,0.05,1.0,0.0,0.0,0.840748,0.541426,0.0,0.572132,saw,0.03,4,13,50.0631,0,
bread_0005,bread_cutting,8e6fa1ae-d6a5-4fec-b3e6-9e70df27249e,bread_0005,2161361361,apartment,full_system,base_system,True,,,Knife,middle,1,shell_removal,knowledge_base,False,False,ok,cut,primary_success,False,shell_removal,False,False,False,True,pr2,success,RIGHT,knife_right,primary,1,0,0,False,False,False,,-0.20497,-0.078693,-0.046827,0.214477,0.076664,0.057223,0.419447,0.155357,0.10405,0.00678033,2.764564,1.951581,0.966814,map,0.0,0.0,0.0,0.0,,,,2.764564,1.951581,0.966814,0.0,0.0,0.997911,-0.064596,0.0,-0.0,-3.012311,-0.17997,-0.001015,-0.041624,0.059602,0.5,0.05,1.0,0.0,0.0,-0.991655,-0.128922,0.0,-3.012311,saw,0.03,4,13,83.0613,0,
bread_0006,bread_cutting,8e6fa1ae-d6a5-4fec-b3e6-9e70df27249e,bread_0006,2161361361,apartment,full_system,base_system,True,,,Knife,middle,1,shell_removal,knowledge_base,False,False,ok,rotate_object_and_retry,both_arms_failed_before_rotation,False,shell_removal,False,False,False,True,pr2,success,RIGHT,knife_right,after_rotation,3,2,2,True,True,True,z_rotation_180,-0.128106,-0.049183,-0.029267,0.134048,0.047915,0.035765,0.262154,0.097098,0.065031,0.00165535,2.848799,3.333824,0.966814,map,0.0,0.0,0.0,0.0,,,,2.848799,3.333824,0.966814,0.0,0.0,0.771503,0.636226,0.0,-0.0,1.762399,-0.103106,-0.000634,-0.026015,0.095364,0.5,0.05,1.0,0.0,0.0,-0.190432,0.9817,0.0,1.762399,saw,0.03,4,13,339.6412,2,RIGHT primary -> CollisionError (reported as timeout): Timeout reached while waiting for end of motion. | LEFT primary -> CollisionError (reported as timeout): Timeout reached while waiting for end of motion.
bread_0007,bread_cutting,8e6fa1ae-d6a5-4fec-b3e6-9e70df27249e,bread_0007,2161361361,apartment,full_system,base_system,True,,,Knife,middle,1,shell_removal,knowledge_base,False,False,ok,cut,primary_success,False,shell_removal,False,False,False,True,pr2,success,RIGHT,knife_right,primary,1,0,0,False,False,False,,-0.153728,-0.05902,-0.03512,0.160858,0.057498,0.042917,0.314585,0.116518,0.078038,0.00286045,2.929385,3.865517,0.966814,map,0.0,0.0,0.0,0.0,,,,2.929385,3.865517,0.966814,0.0,0.0,-0.480264,0.877124,0.0,-0.0,-1.001912,-0.128728,-0.000761,-0.031218,0.07947,0.5,0.05,1.0,0.0,0.0,0.538692,-0.842503,0.0,-1.001912,saw,0.03,4,13,28.4923,0,
bread_0008,bread_cutting,8e6fa1ae-d6a5-4fec-b3e6-9e70df27249e,bread_0008,2161361361,apartment,full_system,base_system,True,,,Knife,middle,1,shell_removal,knowledge_base,False,False,ok,rotate_object_and_retry,both_arms_failed_before_rotation,False,shell_removal,False,False,False,True,pr2,success,RIGHT,knife_right,after_rotation,3,2,2,True,True,True,z_rotation_180,-0.128106,-0.049183,-0.029267,0.134048,0.047915,0.035765,0.262154,0.097098,0.065031,0.00165535,2.547677,3.22973,0.966814,map,0.0,0.0,0.0,0.0,,,,2.547677,3.22973,0.966814,0.0,0.0,-0.228784,0.973477,0.0,-0.0,-0.461656,-0.103106,-0.000634,-0.026015,0.095364,0.5,0.05,1.0,0.0,0.0,0.895316,-0.445431,0.0,-0.461656,saw,0.03,4,13,299.5042,2,RIGHT primary -> CollisionError (reported as timeout): Timeout reached while waiting for end of motion. | LEFT primary -> CollisionError (reported as timeout): Timeout reached while waiting for end of motion.
bread_0009,bread_cutting,8e6fa1ae-d6a5-4fec-b3e6-9e70df27249e,bread_0009,2161361361,apartment,full_system,base_system,True,,,Knife,middle,1,shell_removal,knowledge_base,False,False,ok,cut,primary_success,False,shell_removal,False,False,False,True,pr2,success,RIGHT,knife_right,primary,1,0,0,False,False,False,,-0.128106,-0.049183,-0.029267,0.134048,0.047915,0.035765,0.262154,0.097098,0.065031,0.00165535,2.977407,2.725434,0.966814,map,0.0,0.0,0.0,0.0,,,,2.977407,2.725434,0.966814,0.0,0.0,0.374409,0.927264,0.0,-0.0,0.767518,-0.103106,-0.000634,-0.026015,0.095364,0.5,0.05,1.0,0.0,0.0,0.719636,0.694351,0.0,0.767518,saw,0.03,4,13,24.4748,0,
bread_0010,bread_cutting,8e6fa1ae-d6a5-4fec-b3e6-9e70df27249e,bread_0010,2161361361,apartment,full_system,base_system,True,,,Knife,middle,1,shell_removal,knowledge_base,False,False,ok,cut,primary_success,False,shell_removal,False,False,False,True,pr2,success,RIGHT,knife_right,primary,1,0,0,False,False,False,,-0.128106,-0.049183,-0.029267,0.134048,0.047915,0.035765,0.262154,0.097098,0.065031,0.00165535,2.539611,4.019154,0.966814,map,0.0,0.0,0.0,0.0,,,,2.539611,4.019154,0.966814,0.0,0.0,0.877317,-0.479911,0.0,-0.0,-2.140487,-0.103106,-0.000634,-0.026015,0.095364,0.5,0.05,1.0,0.0,0.0,-0.539371,-0.842068,0.0,-2.140487,saw,0.03,4,13,40.39,0,
bread_0011,bread_cutting,8e6fa1ae-d6a5-4fec-b3e6-9e70df27249e,bread_0011,2161361361,apartment,full_system,base_system,True,,,Knife,middle,1,shell_removal,knowledge_base,False,False,ok,cut,primary_success,False,shell_removal,False,False,False,True,pr2,success,RIGHT,knife_right,primary,1,0,0,False,False,False,,-0.128106,-0.049183,-0.029267,0.134048,0.047915,0.035765,0.262154,0.097098,0.065031,0.00165535,2.899725,3.032182,0.966814,map,0.0,0.0,0.0,0.0,,,,2.899725,3.032182,0.966814,0.0,0.0,0.899346,-0.437239,0.0,-0.0,-2.236541,-0.103106,-0.000634,-0.026015,0.095364,0.5,0.05,1.0,0.0,0.0,-0.617645,-0.786457,0.0,-2.236541,saw,0.03,4,13,41.2499,0,
bread_0012,bread_cutting,8e6fa1ae-d6a5-4fec-b3e6-9e70df27249e,bread_0012,2161361361,apartment,full_system,base_system,True,,,Knife,middle,1,shell_removal,knowledge_base,False,False,ok,cut,primary_success,False,shell_removal,False,False,False,True,pr2,success,RIGHT,knife_right,primary,1,0,0,False,False,False,,-0.128106,-0.049183,-0.029267,0.134048,0.047915,0.035765,0.262154,0.097098,0.065031,0.00165535,2.526119,2.44166,0.966814,map,0.0,0.0,0.0,0.0,,,,2.526119,2.44166,0.966814,0.0,0.0,0.988619,0.150438,0.0,-0.0,2.83957,-0.103106,-0.000634,-0.026015,0.095364,0.5,0.05,1.0,0.0,0.0,-0.954737,0.297452,0.0,2.83957,saw,0.03,4,13,65.1011,0,
bread_0013,bread_cutting,8e6fa1ae-d6a5-4fec-b3e6-9e70df27249e,bread_0013,2161361361,apartment,full_system,base_system,True,,,Knife,middle,1,shell_removal,knowledge_base,False,False,ok,rotate_object_and_retry,both_arms_failed_before_rotation,False,shell_removal,False,False,False,True,pr2,success,RIGHT,knife_right,after_rotation,3,2,2,True,True,True,z_rotation_180,-0.179349,-0.068857,-0.040973,0.187667,0.067081,0.05007,0.367016,0.135937,0.091044,0.00454229,0.315433,3.078623,0.9405,map,0.0,0.0,0.0,0.0,,,,0.315433,3.078623,0.9405,0.0,0.0,-0.746548,0.665331,0.0,-0.0,-1.685718,-0.154349,-0.000888,-0.036421,0.068117,0.5,0.05,1.0,0.0,0.0,-0.114669,-0.993404,0.0,-1.685718,saw,0.03,4,13,325.3014,2,RIGHT primary -> CollisionError (reported as timeout): Timeout reached while waiting for end of motion. | LEFT primary -> CollisionError (reported as timeout): Timeout reached while waiting for end of motion.
bread_0014,bread_cutting,8e6fa1ae-d6a5-4fec-b3e6-9e70df27249e,bread_0014,2161361361,apartment,full_system,base_system,True,,,Knife,middle,1,shell_removal,knowledge_base,False,False,prerequisite_requires_human_assistance,request_human_help,knowledge_base_prerequisite_detected,True,shell_removal,False,True,False,False,pr2,failed,,knife_left,after_rotation,4,3,4,True,False,True,z_rotation_180,-0.153728,-0.05902,-0.03512,0.160858,0.057498,0.042917,0.314585,0.116518,0.078038,0.00286045,0.310432,3.528409,0.9405,map,0.0,0.0,0.0,0.0,,,,0.310432,3.528409,0.9405,0.0,0.0,-0.516716,0.856157,0.0,-0.0,-1.086022,-0.128728,-0.000761,-0.031218,0.07947,0.5,0.05,1.0,0.0,0.0,0.466009,-0.88478,0.0,-1.086022,saw,0.03,4,13,160.0069,4,RIGHT primary -> CollisionError (reported as timeout): Timeout reached while waiting for end of motion. | LEFT primary -> CollisionError (reported as timeout): Timeout reached while waiting for end of motion. | RIGHT after_rotation -> CollisionError (reported as timeout): Timeout reached while waiting for end of motion. | LEFT after_rotation -> CollisionError (reported as timeout): Timeout reached while waiting for end of motion.
bread_0015,bread_cutting,8e6fa1ae-d6a5-4fec-b3e6-9e70df27249e,bread_0015,2161361361,apartment,full_system,base_system,True,,,Knife,middle,1,shell_removal,knowledge_base,False,False,ok,cut,primary_success,False,shell_removal,False,False,False,True,pr2,success,RIGHT,knife_right,primary,1,0,0,False,False,False,,-0.20497,-0.078693,-0.046827,0.214477,0.076664,0.057223,0.419447,0.155357,0.10405,0.00678033,4.980781,3.917469,0.742643,map,0.0,0.0,0.0,0.0,,,,4.980781,3.917469,0.742643,0.0,0.0,0.993506,0.11378,0.0,-0.0,2.913539,-0.17997,-0.001015,-0.041624,0.059602,0.5,0.05,1.0,0.0,0.0,-0.974108,0.226082,0.0,2.913539,saw,0.03,4,13,34.4219,0,
bread_0016,bread_cutting,8e6fa1ae-d6a5-4fec-b3e6-9e70df27249e,bread_0016,2161361361,apartment,full_system,base_system,True,,,Knife,middle,1,shell_removal,knowledge_base,False,False,ok,cut,primary_success,False,shell_removal,False,False,False,True,pr2,success,RIGHT,knife_right,primary,1,0,0,False,False,False,,-0.153728,-0.05902,-0.03512,0.160858,0.057498,0.042917,0.314585,0.116518,0.078038,0.00286045,4.93185,4.457495,0.742643,map,0.0,0.0,0.0,0.0,,,,4.93185,4.457495,0.742643,0.0,0.0,0.994761,0.102229,0.0,-0.0,2.936777,-0.128728,-0.000761,-0.031218,0.07947,0.5,0.05,1.0,0.0,0.0,-0.979099,0.203387,0.0,2.936777,saw,0.03,4,13,56.123,0,
bread_0017,bread_cutting,8e6fa1ae-d6a5-4fec-b3e6-9e70df27249e,bread_0017,2161361361,apartment,full_system,base_system,True,,,Knife,middle,1,shell_removal,knowledge_base,False,False,ok,cut,primary_success,False,shell_removal,False,False,False,True,pr2,success,RIGHT,knife_right,primary,1,0,0,False,False,False,,-0.153728,-0.05902,-0.03512,0.160858,0.057498,0.042917,0.314585,0.116518,0.078038,0.00286045,5.003218,3.464572,0.742643,map,0.0,0.0,0.0,0.0,,,,5.003218,3.464572,0.742643,0.0,0.0,0.984936,-0.17292,0.0,-0.0,-2.794005,-0.128728,-0.000761,-0.031218,0.07947,0.5,0.05,1.0,0.0,0.0,-0.940197,-0.340631,0.0,-2.794005,saw,0.03,4,13,66.7406,0,
bread_0001,bread_cutting,a830f48b-ef82-4bad-84ab-46f8bb57fc92,bread_0001,1014885579,apartment,full_system,base_system,True,,,Knife,middle,1,shell_removal,knowledge_base,False,False,ok,cut,primary_success,False,shell_removal,False,False,False,True,pr2,success,RIGHT,knife_right,primary,1,0,0,False,False,False,,-0.128106,-0.049183,-0.029267,0.134048,0.047915,0.035765,0.262154,0.097098,0.065031,0.00165535,2.904497,2.567345,0.966814,map,0.0,0.0,0.0,0.0,,,,2.904497,2.567345,0.966814,0.0,0.0,0.825043,0.56507,0.0,-0.0,1.940556,-0.103106,-0.000634,-0.026015,0.095364,0.5,0.05,1.0,0.0,0.0,-0.361391,0.932414,0.0,1.940556,saw,0.03,4,13,16.8167,0,
bread_0002,bread_cutting,a830f48b-ef82-4bad-84ab-46f8bb57fc92,bread_0002,1014885579,apartment,full_system,base_system,True,,,Knife,middle,1,shell_removal,knowledge_base,False,False,ok,cut,primary_success,False,shell_removal,False,False,False,True,pr2,success,RIGHT,knife_right,primary,1,0,0,False,False,False,,-0.128106,-0.049183,-0.029267,0.134048,0.047915,0.035765,0.262154,0.097098,0.065031,0.00165535,2.976302,2.897008,0.966814,map,0.0,0.0,0.0,0.0,,,,2.976302,2.897008,0.966814,0.0,0.0,0.997164,-0.075264,0.0,-0.0,-2.990923,-0.103106,-0.000634,-0.026015,0.095364,0.5,0.05,1.0,0.0,0.0,-0.988671,-0.150101,0.0,-2.990923,saw,0.03,4,13,28.2459,0,
bread_0003,bread_cutting,a830f48b-ef82-4bad-84ab-46f8bb57fc92,bread_0003,1014885579,apartment,full_system,base_system,True,,,Knife,middle,1,shell_removal,knowledge_base,False,False,ok,cut,primary_success,False,shell_removal,False,False,False,True,pr2,success,RIGHT,knife_right,primary,1,0,0,False,False,False,,-0.179349,-0.068857,-0.040973,0.187667,0.067081,0.05007,0.367016,0.135937,0.091044,0.00454229,2.634969,2.175213,0.966814,map,0.0,0.0,0.0,0.0,,,,2.634969,2.175213,0.966814,0.0,0.0,-0.802543,0.596594,0.0,-0.0,-1.863093,-0.154349,-0.000888,-0.036421,0.068117,0.5,0.05,1.0,0.0,0.0,-0.288152,-0.957585,0.0,-1.863093,saw,0.03,4,13,85.6558,0,
bread_0004,bread_cutting,a830f48b-ef82-4bad-84ab-46f8bb57fc92,bread_0004,1014885579,apartment,full_system,base_system,True,,,Knife,middle,1,shell_removal,knowledge_base,False,False,ok,rotate_object_and_retry,both_arms_failed_before_rotation,False,shell_removal,False,False,False,True,pr2,success,RIGHT,knife_right,after_rotation,3,2,2,True,True,True,z_rotation_180,-0.179349,-0.068857,-0.040973,0.187667,0.067081,0.05007,0.367016,0.135937,0.091044,0.00454229,2.672319,1.592638,0.966814,map,0.0,0.0,0.0,0.0,,,,2.672319,1.592638,0.966814,0.0,0.0,-0.652548,0.757747,0.0,-0.0,-1.421885,-0.154349,-0.000888,-0.036421,0.068117,0.5,0.05,1.0,0.0,0.0,0.148362,-0.988933,0.0,-1.421885,saw,0.03,4,13,335.5922,2,RIGHT primary -> CollisionError (reported as timeout): Timeout reached while waiting for end of motion. | LEFT primary -> CollisionError (reported as timeout): Timeout reached while waiting for end of motion.
bread_0005,bread_cutting,a830f48b-ef82-4bad-84ab-46f8bb57fc92,bread_0005,1014885579,apartment,full_system,base_system,True,,,Knife,middle,1,shell_removal,knowledge_base,False,False,ok,cut,primary_success,False,shell_removal,False,False,False,True,pr2,success,RIGHT,knife_right,primary,1,0,0,False,False,False,,-0.128106,-0.049183,-0.029267,0.134048,0.047915,0.035765,0.262154,0.097098,0.065031,0.00165535,2.513474,3.69564,0.966814,map,0.0,0.0,0.0,0.0,,,,2.513474,3.69564,0.966814,0.0,0.0,0.080524,0.996753,0.0,-0.0,0.161223,-0.103106,-0.000634,-0.026015,0.095364,0.5,0.05,1.0,0.0,0.0,0.987032,0.160525,0.0,0.161223,saw,0.03,4,13,29.0639,0,
bread_0006,bread_cutting,a830f48b-ef82-4bad-84ab-46f8bb57fc92,bread_0006,1014885579,apartment,full_system,base_system,True,,,Knife,middle,1,shell_removal,knowledge_base,False,False,prerequisite_requires_human_assistance,request_human_help,knowledge_base_prerequisite_detected,True,shell_removal,False,True,False,False,pr2,failed,,knife_left,after_rotation,4,3,4,True,False,True,z_rotation_180,-0.179349,-0.068857,-0.040973,0.187667,0.067081,0.05007,0.367016,0.135937,0.091044,0.00454229,2.721171,3.3086,0.966814,map,0.0,0.0,0.0,0.0,,,,2.721171,3.3086,0.966814,0.0,0.0,-0.624267,0.781211,0.0,-0.0,-1.348386,-0.154349,-0.000888,-0.036421,0.068117,0.5,0.05,1.0,0.0,0.0,0.220582,-0.975369,0.0,-1.348386,saw,0.03,4,13,426.0581,4,RIGHT primary -> CollisionError (reported as timeout): Timeout reached while waiting for end of motion. | LEFT primary -> CollisionError (reported as timeout): Timeout reached while waiting for end of motion. | RIGHT after_rotation -> CollisionError (reported as timeout): Timeout reached while waiting for end of motion. | LEFT after_rotation -> CollisionError (reported as timeout): Timeout reached while waiting for end of motion.
bread_0007,bread_cutting,a830f48b-ef82-4bad-84ab-46f8bb57fc92,bread_0007,1014885579,apartment,full_system,base_system,True,,,Knife,middle,1,shell_removal,knowledge_base,False,False,ok,rotate_object_and_retry,both_arms_failed_before_rotation,False,shell_removal,False,False,False,True,pr2,success,RIGHT,knife_right,after_rotation,3,2,2,True,True,True,z_rotation_180,-0.179349,-0.068857,-0.040973,0.187667,0.067081,0.05007,0.367016,0.135937,0.091044,0.00454229,2.845887,3.865909,0.966814,map,0.0,0.0,0.0,0.0,,,,2.845887,3.865909,0.966814,0.0,0.0,0.921523,0.388323,0.0,-0.0,2.343971,-0.154349,-0.000888,-0.036421,0.068117,0.5,0.05,1.0,0.0,0.0,-0.698411,0.715697,0.0,2.343971,saw,0.03,4,13,204.9992,2,RIGHT primary -> CollisionError (reported as timeout): Timeout reached while waiting for end of motion. | LEFT primary -> CollisionError (reported as timeout): Timeout reached while waiting for end of motion.
bread_0008,bread_cutting,a830f48b-ef82-4bad-84ab-46f8bb57fc92,bread_0008,1014885579,apartment,full_system,base_system,True,,,Knife,middle,1,shell_removal,knowledge_base,False,False,ok,cut,primary_success,False,shell_removal,False,False,False,True,pr2,success,RIGHT,knife_right,primary,1,0,0,False,False,False,,-0.128106,-0.049183,-0.029267,0.134048,0.047915,0.035765,0.262154,0.097098,0.065031,0.00165535,2.942576,1.338576,0.966814,map,0.0,0.0,0.0,0.0,,,,2.942576,1.338576,0.966814,0.0,0.0,-0.548451,0.836183,0.0,-0.0,-1.161022,-0.103106,-0.000634,-0.026015,0.095364,0.5,0.05,1.0,0.0,0.0,0.398403,-0.917211,0.0,-1.161022,saw,0.03,4,13,11.9778,0,
bread_0009,bread_cutting,a830f48b-ef82-4bad-84ab-46f8bb57fc92,bread_0009,1014885579,apartment,full_system,base_system,True,,,Knife,middle,1,shell_removal,knowledge_base,False,False,ok,cut,primary_success,False,shell_removal,False,False,False,True,pr2,success,RIGHT,knife_right,primary,1,0,0,False,False,False,,-0.128106,-0.049183,-0.029267,0.134048,0.047915,0.035765,0.262154,0.097098,0.065031,0.00165535,2.52169,2.723911,0.966814,map,0.0,0.0,0.0,0.0,,,,2.52169,2.723911,0.966814,0.0,0.0,-0.400215,0.916421,0.0,-0.0,-0.823503,-0.103106,-0.000634,-0.026015,0.095364,0.5,0.05,1.0,0.0,0.0,0.679655,-0.733531,0.0,-0.823503,saw,0.03,4,13,56.1795,0,
bread_0010,bread_cutting,a830f48b-ef82-4bad-84ab-46f8bb57fc92,bread_0010,1014885579,apartment,full_system,base_system,True,,,Knife,middle,1,shell_removal,knowledge_base,False,False,ok,cut,primary_success,False,shell_removal,False,False,False,True,pr2,success,RIGHT,knife_right,primary,1,0,0,False,False,False,,-0.128106,-0.049183,-0.029267,0.134048,0.047915,0.035765,0.262154,0.097098,0.065031,0.00165535,2.936011,1.922464,0.966814,map,0.0,0.0,0.0,0.0,,,,2.936011,1.922464,0.966814,0.0,0.0,0.999911,-0.013367,0.0,-0.0,-3.114858,-0.103106,-0.000634,-0.026015,0.095364,0.5,0.05,1.0,0.0,0.0,-0.999643,-0.026732,0.0,-3.114858,saw,0.03,4,13,33.8919,0,
bread_0011,bread_cutting,a830f48b-ef82-4bad-84ab-46f8bb57fc92,bread_0011,1014885579,apartment,full_system,base_system,True,,,Knife,middle,1,shell_removal,knowledge_base,False,False,ok,cut,primary_success,False,shell_removal,False,False,False,True,pr2,success,RIGHT,knife_right,primary,1,0,0,False,False,False,,-0.128106,-0.049183,-0.029267,0.134048,0.047915,0.035765,0.262154,0.097098,0.065031,0.00165535,2.988238,2.273436,0.966814,map,0.0,0.0,0.0,0.0,,,,2.988238,2.273436,0.966814,0.0,0.0,-0.032745,0.999464,0.0,-0.0,-0.065501,-0.103106,-0.000634,-0.026015,0.095364,0.5,0.05,1.0,0.0,0.0,0.997856,-0.065454,0.0,-0.065501,saw,0.03,4,13,46.67,0,
bread_0012,bread_cutting,a830f48b-ef82-4bad-84ab-46f8bb57fc92,bread_0012,1014885579,apartment,full_system,base_system,True,,,Knife,middle,1,shell_removal,knowledge_base,False,False,prerequisite_requires_human_assistance,request_human_help,knowledge_base_prerequisite_detected,True,shell_removal,False,True,False,False,pr2,failed,,knife_left,after_rotation,4,3,4,True,False,True,z_rotation_180,-0.179349,-0.068857,-0.040973,0.187667,0.067081,0.05007,0.367016,0.135937,0.091044,0.00454229,0.319774,3.106946,0.9405,map,0.0,0.0,0.0,0.0,,,,0.319774,3.106946,0.9405,0.0,0.0,0.998254,0.059075,0.0,-0.0,3.023374,-0.154349,-0.000888,-0.036421,0.068117,0.5,0.05,1.0,0.0,0.0,-0.99302,0.117943,0.0,3.023374,saw,0.03,4,13,384.2592,4,RIGHT primary -> CollisionError (reported as timeout): Timeout reached while waiting for end of motion. | LEFT primary -> CollisionError (reported as timeout): Timeout reached while waiting for end of motion. | RIGHT after_rotation -> CollisionError (reported as timeout): Timeout reached while waiting for end of motion. | LEFT after_rotation -> CollisionError (reported as timeout): Timeout reached while waiting for end of motion.
bread_0013,bread_cutting,a830f48b-ef82-4bad-84ab-46f8bb57fc92,bread_0013,1014885579,apartment,full_system,base_system,True,,,Knife,middle,1,shell_removal,knowledge_base,False,False,prerequisite_requires_human_assistance,request_human_help,knowledge_base_prerequisite_detected,True,shell_removal,False,True,False,False,pr2,failed,,knife_left,after_rotation,4,3,4,True,False,True,z_rotation_180,-0.128106,-0.049183,-0.029267,0.134048,0.047915,0.035765,0.262154,0.097098,0.065031,0.00165535,0.252647,3.572152,0.9405,map,0.0,0.0,0.0,0.0,,,,0.252647,3.572152,0.9405,0.0,0.0,0.840593,0.541667,0.0,-0.0,1.996755,-0.103106,-0.000634,-0.026015,0.095364,0.5,0.05,1.0,0.0,0.0,-0.413194,0.910643,0.0,1.996755,saw,0.03,4,13,195.4097,4,RIGHT primary -> CollisionError (reported as timeout): Timeout reached while waiting for end of motion. | LEFT primary -> CollisionError (reported as timeout): Timeout reached while waiting for end of motion. | RIGHT after_rotation -> CollisionError (reported as timeout): Timeout reached while waiting for end of motion. | LEFT after_rotation -> CollisionError (reported as timeout): Timeout reached while waiting for end of motion.
bread_0014,bread_cutting,a830f48b-ef82-4bad-84ab-46f8bb57fc92,bread_0014,1014885579,apartment,full_system,base_system,True,,,Knife,middle,1,shell_removal,knowledge_base,False,False,ok,cut,primary_success,False,shell_removal,False,False,False,True,pr2,success,RIGHT,knife_right,primary,1,0,0,False,False,False,,-0.179349,-0.068857,-0.040973,0.187667,0.067081,0.05007,0.367016,0.135937,0.091044,0.00454229,5.031282,3.874089,0.742643,map,0.0,0.0,0.0,0.0,,,,5.031282,3.874089,0.742643,0.0,0.0,0.910648,-0.413182,0.0,-0.0,-2.289701,-0.154349,-0.000888,-0.036421,0.068117,0.5,0.05,1.0,0.0,0.0,-0.658561,-0.752527,0.0,-2.289701,saw,0.03,4,13,12.1092,0,
bread_0015,bread_cutting,a830f48b-ef82-4bad-84ab-46f8bb57fc92,bread_0015,1014885579,apartment,full_system,base_system,True,,,Knife,middle,1,shell_removal,knowledge_base,False,False,ok,cut,primary_success,False,shell_removal,False,False,False,True,pr2,success,RIGHT,knife_right,primary,1,0,0,False,False,False,,-0.153728,-0.05902,-0.03512,0.160858,0.057498,0.042917,0.314585,0.116518,0.078038,0.00286045,4.962404,4.371084,0.742643,map,0.0,0.0,0.0,0.0,,,,4.962404,4.371084,0.742643,0.0,0.0,0.035226,0.999379,0.0,-0.0,0.070467,-0.128728,-0.000761,-0.031218,0.07947,0.5,0.05,1.0,0.0,0.0,0.997518,0.070409,0.0,0.070467,saw,0.03,4,13,37.398,0,
bread_0016,bread_cutting,a830f48b-ef82-4bad-84ab-46f8bb57fc92,bread_0016,1014885579,apartment,full_system,base_system,True,,,Knife,middle,1,shell_removal,knowledge_base,False,False,ok,cut,primary_success,False,shell_removal,False,False,False,True,pr2,success,RIGHT,knife_right,primary,1,0,0,False,False,False,,-0.128106,-0.049183,-0.029267,0.134048,0.047915,0.035765,0.262154,0.097098,0.065031,0.00165535,4.843695,3.481232,0.742643,map,0.0,0.0,0.0,0.0,,,,4.843695,3.481232,0.742643,0.0,0.0,-0.540679,0.841229,0.0,-0.0,-1.142488,-0.103106,-0.000634,-0.026015,0.095364,0.5,0.05,1.0,0.0,0.0,0.415333,-0.90967,0.0,-1.142488,saw,0.03,4,13,47.1698,0,
bread_0017,bread_cutting,a830f48b-ef82-4bad-84ab-46f8bb57fc92,bread_0017,1014885579,apartment,full_system,base_system,True,,,Knife,middle,1,shell_removal,knowledge_base,False,False,ok,cut,primary_success,False,shell_removal,False,False,False,True,pr2,success,RIGHT,knife_right,primary,1,0,0,False,False,False,,-0.128106,-0.049183,-0.029267,0.134048,0.047915,0.035765,0.262154,0.097098,0.065031,0.00165535,5.195262,3.507869,0.742643,map,0.0,0.0,0.0,0.0,,,,5.195262,3.507869,0.742643,0.0,0.0,0.983168,-0.182702,0.0,-0.0,-2.774124,-0.103106,-0.000634,-0.026015,0.095364,0.5,0.05,1.0,0.0,0.0,-0.93324,-0.359254,0.0,-2.774124,saw,0.03,4,13,30.682,0,
bread_0001,bread_cutting,fbb3abd8-5b65-419d-bc79-b2b26f0dc9a1,bread_0001,925236720,kitchen,full_system,base_system,True,,,Knife,middle,1,shell_removal,knowledge_base,False,False,ok,cut,primary_success,False,shell_removal,False,False,False,True,pr2,success,RIGHT,knife_right,primary,1,0,0,False,False,False,,-0.179349,-0.068857,-0.040973,0.187667,0.067081,0.05007,0.367016,0.135937,0.091044,0.00454229,1.534976,0.064308,0.873725,map,0.0,0.0,0.0,0.0,,,,1.534976,0.064308,0.873725,0.0,0.0,-0.198994,0.980001,0.0,-0.0,-0.400663,-0.154349,-0.000888,-0.036421,0.068117,0.5,0.05,1.0,0.0,0.0,0.920802,-0.390029,0.0,-0.400663,saw,0.03,4,13,12.4725,0,
bread_0002,bread_cutting,fbb3abd8-5b65-419d-bc79-b2b26f0dc9a1,bread_0002,925236720,kitchen,full_system,base_system,True,,,Knife,middle,1,shell_removal,knowledge_base,False,False,ok,cut,primary_success,False,shell_removal,False,False,False,True,pr2,success,RIGHT,knife_right,primary,1,0,0,False,False,False,,-0.128106,-0.049183,-0.029267,0.134048,0.047915,0.035765,0.262154,0.097098,0.065031,0.00165535,1.490912,0.550405,0.873725,map,0.0,0.0,0.0,0.0,,,,1.490912,0.550405,0.873725,0.0,0.0,-0.058928,0.998262,0.0,-0.0,-0.117924,-0.103106,-0.000634,-0.026015,0.095364,0.5,0.05,1.0,0.0,0.0,0.993055,-0.117651,0.0,-0.117924,saw,0.03,4,13,16.0265,0,
bread_0003,bread_cutting,fbb3abd8-5b65-419d-bc79-b2b26f0dc9a1,bread_0003,925236720,kitchen,full_system,base_system,True,,,Knife,middle,1,shell_removal,knowledge_base,False,False,ok,cut,primary_success,False,shell_removal,False,False,False,True,pr2,success,RIGHT,knife_right,primary,1,0,0,False,False,False,,-0.153728,-0.05902,-0.03512,0.160858,0.057498,0.042917,0.314585,0.116518,0.078038,0.00286045,1.541445,-0.404547,0.873725,map,0.0,0.0,0.0,0.0,,,,1.541445,-0.404547,0.873725,0.0,0.0,-0.792821,0.609455,0.0,-0.0,-1.830847,-0.128728,-0.000761,-0.031218,0.07947,0.5,0.05,1.0,0.0,0.0,-0.25713,-0.966377,0.0,-1.830847,saw,0.03,4,13,21.3746,0,
bread_0004,bread_cutting,fbb3abd8-5b65-419d-bc79-b2b26f0dc9a1,bread_0004,925236720,kitchen,full_system,base_system,True,,,Knife,middle,1,shell_removal,knowledge_base,False,False,ok,cut,primary_success,False,shell_removal,False,False,False,True,pr2,success,RIGHT,knife_right,primary,1,0,0,False,False,False,,-0.128106,-0.049183,-0.029267,0.134048,0.047915,0.035765,0.262154,0.097098,0.065031,0.00165535,1.496563,1.066834,0.873725,map,0.0,0.0,0.0,0.0,,,,1.496563,1.066834,0.873725,0.0,0.0,0.031118,0.999516,0.0,-0.0,0.062245,-0.103106,-0.000634,-0.026015,0.095364,0.5,0.05,1.0,0.0,0.0,0.998063,0.062205,0.0,0.062245,saw,0.03,4,13,21.859,0,
bread_0005,bread_cutting,fbb3abd8-5b65-419d-bc79-b2b26f0dc9a1,bread_0005,925236720,kitchen,full_system,base_system,True,,,Knife,middle,1,shell_removal,knowledge_base,False,False,ok,cut,primary_success,False,shell_removal,False,False,False,True,pr2,success,RIGHT,knife_right,primary,1,0,0,False,False,False,,-0.128106,-0.049183,-0.029267,0.134048,0.047915,0.035765,0.262154,0.097098,0.065031,0.00165535,1.593192,0.186131,0.810831,map,0.0,0.0,0.0,0.0,,,,1.593192,0.186131,0.810831,0.0,0.0,0.950496,-0.310738,0.0,-0.0,-2.509655,-0.103106,-0.000634,-0.026015,0.095364,0.5,0.05,1.0,0.0,0.0,-0.806884,-0.590709,0.0,-2.509655,saw,0.03,4,13,26.7627,0,
bread_0006,bread_cutting,fbb3abd8-5b65-419d-bc79-b2b26f0dc9a1,bread_0006,925236720,kitchen,full_system,base_system,True,,,Knife,middle,1,shell_removal,knowledge_base,False,False,prerequisite_requires_human_assistance,request_human_help,knowledge_base_prerequisite_detected,True,shell_removal,False,True,False,False,pr2,failed,,knife_left,after_rotation,4,3,4,True,False,True,z_rotation_180,-0.128106,-0.049183,-0.029267,0.134048,0.047915,0.035765,0.262154,0.097098,0.065031,0.00165535,1.580814,2.020861,1.533227,map,0.0,0.0,0.0,0.0,,,,1.580814,2.020861,1.533227,0.0,0.0,0.905766,0.423777,0.0,-0.0,2.266369,-0.103106,-0.000634,-0.026015,0.095364,0.5,0.05,1.0,0.0,0.0,-0.640826,0.767687,0.0,2.266369,saw,0.03,4,13,164.3961,4,RIGHT primary -> CollisionError (reported as timeout): Timeout reached while waiting for end of motion. | LEFT primary -> CollisionError (reported as timeout): Timeout reached while waiting for end of motion. | RIGHT after_rotation -> CollisionError (reported as timeout): Timeout reached while waiting for end of motion. | LEFT after_rotation -> CollisionError (reported as timeout): Timeout reached while waiting for end of motion.
bread_0007,bread_cutting,fbb3abd8-5b65-419d-bc79-b2b26f0dc9a1,bread_0007,925236720,kitchen,full_system,base_system,True,,,Knife,middle,1,shell_removal,knowledge_base,False,False,prerequisite_requires_human_assistance,request_human_help,knowledge_base_prerequisite_detected,True,shell_removal,False,True,False,False,pr2,failed,,knife_left,after_rotation,4,3,4,True,False,True,z_rotation_180,-0.179349,-0.068857,-0.040973,0.187667,0.067081,0.05007,0.367016,0.135937,0.091044,0.00454229,1.516574,1.608197,1.533227,map,0.0,0.0,0.0,0.0,,,,1.516574,1.608197,1.533227,0.0,0.0,0.962626,-0.270834,0.0,-0.0,-2.593075,-0.154349,-0.000888,-0.036421,0.068117,0.5,0.05,1.0,0.0,0.0,-0.853298,-0.521423,0.0,-2.593075,saw,0.03,4,13,154.4237,4,RIGHT primary -> CollisionError (reported as timeout): Timeout reached while waiting for end of motion. | LEFT primary -> CollisionError (reported as timeout): Timeout reached while waiting for end of motion. | RIGHT after_rotation -> CollisionError (reported as timeout): Timeout reached while waiting for end of motion. | LEFT after_rotation -> CollisionError (reported as timeout): Timeout reached while waiting for end of motion.
bread_0008,bread_cutting,fbb3abd8-5b65-419d-bc79-b2b26f0dc9a1,bread_0008,925236720,kitchen,full_system,base_system,True,,,Knife,middle,1,shell_removal,knowledge_base,False,False,prerequisite_requires_human_assistance,request_human_help,knowledge_base_prerequisite_detected,True,shell_removal,False,True,False,False,pr2,failed,,knife_left,after_rotation,4,3,4,True,False,True,z_rotation_180,-0.128106,-0.049183,-0.029267,0.134048,0.047915,0.035765,0.262154,0.097098,0.065031,0.00165535,1.49478,1.918362,1.49256,map,0.0,0.0,0.0,0.0,,,,1.49478,1.918362,1.49256,0.0,0.0,-0.306321,0.951928,0.0,-0.0,-0.622652,-0.103106,-0.000634,-0.026015,0.095364,0.5,0.05,1.0,0.0,0.0,0.812335,-0.583192,0.0,-0.622652,saw,0.03,4,13,147.7753,4,RIGHT primary -> CollisionError (reported as timeout): Timeout reached while waiting for end of motion. | LEFT primary -> CollisionError (reported as timeout): Timeout reached while waiting for end of motion. | RIGHT after_rotation -> CollisionError (reported as timeout): Timeout reached while waiting for end of motion. | LEFT after_rotation -> CollisionError (reported as timeout): Timeout reached while waiting for end of motion.
bread_0009,bread_cutting,fbb3abd8-5b65-419d-bc79-b2b26f0dc9a1,bread_0009,925236720,kitchen,full_system,base_system,True,,,Knife,middle,1,shell_removal,knowledge_base,False,False,prerequisite_requires_human_assistance,request_human_help,knowledge_base_prerequisite_detected,True,shell_removal,False,True,False,False,pr2,failed,,knife_left,after_rotation,4,3,4,True,False,True,z_rotation_180,-0.128106,-0.049183,-0.029267,0.134048,0.047915,0.035765,0.262154,0.097098,0.065031,0.00165535,1.509288,1.993157,0.748693,map,0.0,0.0,0.0,0.0,,,,1.509288,1.993157,0.748693,0.0,0.0,-0.562265,0.826957,0.0,-0.0,-1.194244,-0.103106,-0.000634,-0.026015,0.095364,0.5,0.05,1.0,0.0,0.0,0.367716,-0.929938,0.0,-1.194244,saw,0.03,4,13,152.7661,4,RIGHT primary -> CollisionError (reported as timeout): Timeout reached while waiting for end of motion. | LEFT primary -> CollisionError (reported as timeout): Timeout reached while waiting for end of motion. | RIGHT after_rotation -> CollisionError (reported as timeout): Timeout reached while waiting for end of motion. | LEFT after_rotation -> CollisionError (reported as timeout): Timeout reached while waiting for end of motion.
bread_0010,bread_cutting,fbb3abd8-5b65-419d-bc79-b2b26f0dc9a1,bread_0010,925236720,kitchen,full_system,base_system,True,,,Knife,middle,1,shell_removal,knowledge_base,False,False,ok,cut,primary_success,False,shell_removal,False,False,False,True,pr2,success,RIGHT,knife_right,primary,1,0,0,False,False,False,,-0.20497,-0.078693,-0.046827,0.214477,0.076664,0.057223,0.419447,0.155357,0.10405,0.00678033,-0.994761,1.619107,0.878306,map,0.0,0.0,0.0,0.0,,,,-0.994761,1.619107,0.878306,0.0,0.0,0.702259,0.711922,0.0,-0.0,1.55713,-0.17997,-0.001015,-0.041624,0.059602,0.5,0.05,1.0,0.0,0.0,0.013666,0.999907,0.0,1.55713,saw,0.03,4,13,28.2254,0,
bread_0011,bread_cutting,fbb3abd8-5b65-419d-bc79-b2b26f0dc9a1,bread_0011,925236720,kitchen,full_system,base_system,True,,,Knife,middle,1,shell_removal,knowledge_base,False,False,ok,cut,primary_success,False,shell_removal,False,False,False,True,pr2,success,RIGHT,knife_right,primary,1,0,0,False,False,False,,-0.128106,-0.049183,-0.029267,0.134048,0.047915,0.035765,0.262154,0.097098,0.065031,0.00165535,-1.17967,1.168715,0.878306,map,0.0,0.0,0.0,0.0,,,,-1.17967,1.168715,0.878306,0.0,0.0,-0.431432,0.902146,0.0,-0.0,-0.892158,-0.103106,-0.000634,-0.026015,0.095364,0.5,0.05,1.0,0.0,0.0,0.627733,-0.778428,0.0,-0.892158,saw,0.03,4,13,13.3417,0,
bread_0012,bread_cutting,fbb3abd8-5b65-419d-bc79-b2b26f0dc9a1,bread_0012,925236720,kitchen,full_system,base_system,True,,,Knife,middle,1,shell_removal,knowledge_base,False,False,ok,rotate_object_and_retry,both_arms_failed_before_rotation,False,shell_removal,False,False,False,True,pr2,success,RIGHT,knife_right,after_rotation,3,2,2,True,True,True,z_rotation_180,-0.179349,-0.068857,-0.040973,0.187667,0.067081,0.05007,0.367016,0.135937,0.091044,0.00454229,-0.972874,0.816853,0.878306,map,0.0,0.0,0.0,0.0,,,,-0.972874,0.816853,0.878306,0.0,0.0,0.200922,0.979607,0.0,-0.0,0.404599,-0.154349,-0.000888,-0.036421,0.068117,0.5,0.05,1.0,0.0,0.0,0.91926,0.39365,0.0,0.404599,saw,0.03,4,13,111.7484,2,RIGHT primary -> CollisionError (reported as timeout): Timeout reached while waiting for end of motion. | LEFT primary -> CollisionError (reported as timeout): Timeout reached while waiting for end of motion.
bread_0013,bread_cutting,fbb3abd8-5b65-419d-bc79-b2b26f0dc9a1,bread_0013,925236720,kitchen,full_system,base_system,True,,,Knife,middle,1,shell_removal,knowledge_base,False,False,ok,cut,primary_success,False,shell_removal,False,False,False,True,pr2,success,RIGHT,knife_right,primary,1,0,0,False,False,False,,-0.20497,-0.078693,-0.046827,0.214477,0.076664,0.057223,0.419447,0.155357,0.10405,0.00678033,-1.047131,2.397748,0.878306,map,0.0,0.0,0.0,0.0,,,,-1.047131,2.397748,0.878306,0.0,0.0,0.997607,-0.069144,0.0,-0.0,-3.003194,-0.17997,-0.001015,-0.041624,0.059602,0.5,0.05,1.0,0.0,0.0,-0.990438,-0.137957,0.0,-3.003194,saw,0.03,4,13,17.0794,0,
bread_0014,bread_cutting,fbb3abd8-5b65-419d-bc79-b2b26f0dc9a1,bread_0014,925236720,kitchen,full_system,base_system,True,,,Knife,middle,1,shell_removal,knowledge_base,False,False,ok,cut,primary_success,False,shell_removal,False,False,False,True,pr2,success,RIGHT,knife_right,primary,1,0,0,False,False,False,,-0.128106,-0.049183,-0.029267,0.134048,0.047915,0.035765,0.262154,0.097098,0.065031,0.00165535,-1.225029,2.016008,0.878306,map,0.0,0.0,0.0,0.0,,,,-1.225029,2.016008,0.878306,0.0,0.0,-0.772211,0.635366,0.0,-0.0,-1.764627,-0.103106,-0.000634,-0.026015,0.095364,0.5,0.05,1.0,0.0,0.0,-0.19262,-0.981274,0.0,-1.764627,saw,0.03,4,13,11.6271,0,
bread_0015,bread_cutting,fbb3abd8-5b65-419d-bc79-b2b26f0dc9a1,bread_0015,925236720,kitchen,full_system,base_system,True,,,Knife,middle,1,shell_removal,knowledge_base,False,False,prerequisite_requires_human_assistance,request_human_help,knowledge_base_prerequisite_detected,True,shell_removal,False,True,False,False,pr2,failed,,knife_left,after_rotation,4,3,4,True,False,True,z_rotation_180,-0.128106,-0.049183,-0.029267,0.134048,0.047915,0.035765,0.262154,0.097098,0.065031,0.00165535,1.475908,-1.106762,1.532786,map,0.0,0.0,0.0,0.0,,,,1.475908,-1.106762,1.532786,0.0,0.0,0.980153,0.198242,0.0,-0.0,2.742464,-0.103106,-0.000634,-0.026015,0.095364,0.5,0.05,1.0,0.0,0.0,-0.9214,0.388615,0.0,2.742464,saw,0.03,4,13,111.9929,4,RIGHT primary -> CollisionError (reported as timeout): Timeout reached while waiting for end of motion. | LEFT primary -> CollisionError (reported as timeout): Timeout reached while waiting for end of motion. | RIGHT after_rotation -> CollisionError (reported as timeout): Timeout reached while waiting for end of motion. | LEFT after_rotation -> CollisionError (reported as timeout): Timeout reached while waiting for end of motion.
bread_0016,bread_cutting,fbb3abd8-5b65-419d-bc79-b2b26f0dc9a1,bread_0016,925236720,kitchen,full_system,base_system,True,,,Knife,middle,1,shell_removal,knowledge_base,False,False,prerequisite_requires_human_assistance,request_human_help,knowledge_base_prerequisite_detected,True,shell_removal,False,True,False,False,pr2,failed,,knife_left,after_rotation,4,3,4,True,False,True,z_rotation_180,-0.128106,-0.049183,-0.029267,0.134048,0.047915,0.035765,0.262154,0.097098,0.065031,0.00165535,1.495031,-1.011319,1.252716,map,0.0,0.0,0.0,0.0,,,,1.495031,-1.011319,1.252716,0.0,0.0,0.949981,-0.312308,0.0,-0.0,-2.50635,-0.103106,-0.000634,-0.026015,0.095364,0.5,0.05,1.0,0.0,0.0,-0.804928,-0.593373,0.0,-2.50635,saw,0.03,4,13,97.5246,4,RIGHT primary -> CollisionError (reported as timeout): Timeout reached while waiting for end of motion. | LEFT primary -> CollisionError (reported as timeout): Timeout reached while waiting for end of motion. | RIGHT after_rotation -> CollisionError (reported as timeout): Timeout reached while waiting for end of motion. | LEFT after_rotation -> CollisionError (reported as timeout): Timeout reached while waiting for end of motion.
bread_0001,bread_cutting,99a135c7-b464-4eda-8409-b33943dad787,bread_0001,2812241412,apartment,full_system,base_system,True,,,Knife,middle,1,shell_removal,knowledge_base,False,False,prerequisite_requires_human_assistance,request_human_help,knowledge_base_prerequisite_detected,True,shell_removal,False,True,False,False,hsrb,failed,,knife_left,after_rotation,2,1,2,True,False,True,z_rotation_180,-0.179349,-0.068857,-0.040973,0.187667,0.067081,0.05007,0.367016,0.135937,0.091044,0.00454229,2.820283,2.301459,0.966814,map,0.0,0.0,0.0,0.0,,,,2.820283,2.301459,0.966814,0.0,0.0,-0.209723,0.977761,0.0,-0.0,-0.422583,-0.154349,-0.000888,-0.036421,0.068117,0.5,0.05,1.0,0.0,0.0,0.912033,-0.410117,0.0,-0.422583,saw,0.03,4,13,23.2534,2,LEFT primary -> CollisionError (reported as timeout): Timeout reached while waiting for end of motion. | LEFT after_rotation -> CollisionError (reported as timeout): Timeout reached while waiting for end of motion.
bread_0002,bread_cutting,99a135c7-b464-4eda-8409-b33943dad787,bread_0002,2812241412,apartment,full_system,base_system,True,,,Knife,middle,1,shell_removal,knowledge_base,False,False,prerequisite_requires_human_assistance,request_human_help,knowledge_base_prerequisite_detected,True,shell_removal,False,True,False,False,hsrb,failed,,knife_left,after_rotation,2,1,2,True,False,True,z_rotation_180,-0.153728,-0.05902,-0.03512,0.160858,0.057498,0.042917,0.314585,0.116518,0.078038,0.00286045,2.843117,1.403387,0.966814,map,0.0,0.0,0.0,0.0,,,,2.843117,1.403387,0.966814,0.0,0.0,-0.259661,0.9657,0.0,-0.0,-0.525342,-0.128728,-0.000761,-0.031218,0.07947,0.5,0.05,1.0,0.0,0.0,0.865153,-0.501509,0.0,-0.525342,saw,0.03,4,13,22.6824,2,LEFT primary -> CollisionError (reported as timeout): Timeout reached while waiting for end of motion. | LEFT after_rotation -> CollisionError (reported as timeout): Timeout reached while waiting for end of motion.
bread_0003,bread_cutting,99a135c7-b464-4eda-8409-b33943dad787,bread_0003,2812241412,apartment,full_system,base_system,True,,,Knife,middle,1,shell_removal,knowledge_base,False,False,prerequisite_requires_human_assistance,request_human_help,knowledge_base_prerequisite_detected,True,shell_removal,False,True,False,False,hsrb,failed,,knife_left,after_rotation,2,1,2,True,False,True,z_rotation_180,-0.179349,-0.068857,-0.040973,0.187667,0.067081,0.05007,0.367016,0.135937,0.091044,0.00454229,2.799704,3.471672,0.966814,map,0.0,0.0,0.0,0.0,,,,2.799704,3.471672,0.966814,0.0,0.0,0.944686,0.327975,0.0,-0.0,2.473273,-0.154349,-0.000888,-0.036421,0.068117,0.5,0.05,1.0,0.0,0.0,-0.784864,0.619668,0.0,2.473273,saw,0.03,4,13,82.8321,2,LEFT primary -> CollisionError (reported as timeout): Timeout reached while waiting for end of motion. | LEFT after_rotation -> CollisionError (reported as timeout): Timeout reached while waiting for end of motion.
bread_0004,bread_cutting,99a135c7-b464-4eda-8409-b33943dad787,bread_0004,2812241412,apartment,full_system,base_system,True,,,Knife,middle,1,shell_removal,knowledge_base,False,False,prerequisite_requires_human_assistance,request_human_help,knowledge_base_prerequisite_detected,True,shell_removal,False,True,False,False,hsrb,failed,,knife_left,after_rotation,2,1,2,True,False,True,z_rotation_180,-0.128106,-0.049183,-0.029267,0.134048,0.047915,0.035765,0.262154,0.097098,0.065031,0.00165535,2.526122,1.884189,0.966814,map,0.0,0.0,0.0,0.0,,,,2.526122,1.884189,0.966814,0.0,0.0,0.096358,0.995347,0.0,-0.0,0.193015,-0.103106,-0.000634,-0.026015,0.095364,0.5,0.05,1.0,0.0,0.0,0.98143,0.191819,0.0,0.193015,saw,0.03,4,13,29.9705,2,LEFT primary -> CollisionError (reported as timeout): Timeout reached while waiting for end of motion. | LEFT after_rotation -> CollisionError (reported as timeout): Timeout reached while waiting for end of motion.
bread_0005,bread_cutting,99a135c7-b464-4eda-8409-b33943dad787,bread_0005,2812241412,apartment,full_system,base_system,True,,,Knife,middle,1,shell_removal,knowledge_base,False,False,prerequisite_requires_human_assistance,request_human_help,knowledge_base_prerequisite_detected,True,shell_removal,False,True,False,False,hsrb,failed,,knife_left,after_rotation,2,1,2,True,False,True,z_rotation_180,-0.128106,-0.049183,-0.029267,0.134048,0.047915,0.035765,0.262154,0.097098,0.065031,0.00165535,2.542297,1.568517,0.966814,map,0.0,0.0,0.0,0.0,,,,2.542297,1.568517,0.966814,0.0,0.0,0.422253,0.906478,0.0,-0.0,0.871858,-0.103106,-0.000634,-0.026015,0.095364,0.5,0.05,1.0,0.0,0.0,0.643405,0.765526,0.0,0.871858,saw,0.03,4,13,26.6035,2,LEFT primary -> CollisionError (reported as timeout): Timeout reached while waiting for end of motion. | LEFT after_rotation -> CollisionError (reported as timeout): Timeout reached while waiting for end of motion.
bread_0001,bread_cutting,135bd015-56eb-4381-8097-dd831d6a4c85,bread_0001,3225735293,apartment,full_system,base_system,True,,,Knife,middle,1,shell_removal,knowledge_base,False,False,prerequisite_requires_human_assistance,request_human_help,knowledge_base_prerequisite_detected,True,shell_removal,False,True,False,False,pr2,failed,,knife_left,after_rotation,4,3,4,True,False,True,z_rotation_180,-0.179349,-0.068857,-0.040973,0.187667,0.067081,0.05007,0.367016,0.135937,0.091044,0.00454229,2.598198,1.947886,0.966814,map,0.0,0.0,0.0,0.0,,,,2.598198,1.947886,0.966814,0.0,0.0,0.828555,0.559907,0.0,-0.0,1.953045,-0.154349,-0.000888,-0.036421,0.068117,0.5,0.05,1.0,0.0,0.0,-0.373007,0.927828,0.0,1.953045,saw,0.03,4,13,215.5822,4,RIGHT primary -> CollisionError (reported as timeout): Timeout reached while waiting for end of motion. | LEFT primary -> CollisionError (reported as timeout): Timeout reached while waiting for end of motion. | RIGHT after_rotation -> CollisionError (reported as timeout): Timeout reached while waiting for end of motion. | LEFT after_rotation -> CollisionError (reported as timeout): Timeout reached while waiting for end of motion.
bread_0002,bread_cutting,135bd015-56eb-4381-8097-dd831d6a4c85,bread_0002,3225735293,apartment,full_system,base_system,True,,,Knife,middle,1,shell_removal,knowledge_base,False,False,ok,cut,primary_success,False,shell_removal,False,False,False,True,pr2,success,RIGHT,knife_right,primary,1,0,0,False,False,False,,-0.128106,-0.049183,-0.029267,0.134048,0.047915,0.035765,0.262154,0.097098,0.065031,0.00165535,2.833342,1.53906,0.966814,map,0.0,0.0,0.0,0.0,,,,2.833342,1.53906,0.966814,0.0,0.0,0.103237,0.994657,0.0,-0.0,0.206842,-0.103106,-0.000634,-0.026015,0.095364,0.5,0.05,1.0,0.0,0.0,0.978684,0.20537,0.0,0.206842,saw,0.03,4,13,23.4475,0,
bread_0003,bread_cutting,135bd015-56eb-4381-8097-dd831d6a4c85,bread_0003,3225735293,apartment,full_system,base_system,True,,,Knife,middle,1,shell_removal,knowledge_base,False,False,ok,cut,primary_success,False,shell_removal,False,False,False,True,pr2,success,RIGHT,knife_right,primary,1,0,0,False,False,False,,-0.128106,-0.049183,-0.029267,0.134048,0.047915,0.035765,0.262154,0.097098,0.065031,0.00165535,2.914454,2.371202,0.966814,map,0.0,0.0,0.0,0.0,,,,2.914454,2.371202,0.966814,0.0,0.0,-0.165034,0.986288,0.0,-0.0,-0.331586,-0.103106,-0.000634,-0.026015,0.095364,0.5,0.05,1.0,0.0,0.0,0.945527,-0.325543,0.0,-0.331586,saw,0.03,4,13,36.691,0,
bread_0004,bread_cutting,135bd015-56eb-4381-8097-dd831d6a4c85,bread_0004,3225735293,apartment,full_system,base_system,True,,,Knife,middle,1,shell_removal,knowledge_base,False,False,ok,rotate_object_and_retry,both_arms_failed_before_rotation,False,shell_removal,False,False,False,True,pr2,success,RIGHT,knife_right,after_rotation,3,2,2,True,True,True,z_rotation_180,-0.20497,-0.078693,-0.046827,0.214477,0.076664,0.057223,0.419447,0.155357,0.10405,0.00678033,2.822689,3.334402,0.966814,map,0.0,0.0,0.0,0.0,,,,2.822689,3.334402,0.966814,0.0,0.0,0.413681,0.910422,0.0,-0.0,0.852986,-0.17997,-0.001015,-0.041624,0.059602,0.5,0.05,1.0,0.0,0.0,0.657737,0.753248,0.0,0.852986,saw,0.03,4,13,285.5706,2,RIGHT primary -> CollisionError (reported as timeout): Timeout reached while waiting for end of motion. | LEFT primary -> CollisionError (reported as timeout): Timeout reached while waiting for end of motion.
bread_0005,bread_cutting,135bd015-56eb-4381-8097-dd831d6a4c85,bread_0005,3225735293,apartment,full_system,base_system,True,,,Knife,middle,1,shell_removal,knowledge_base,False,False,ok,cut,primary_success,False,shell_removal,False,False,False,True,pr2,success,RIGHT,knife_right,primary,1,0,0,False,False,False,,-0.128106,-0.049183,-0.029267,0.134048,0.047915,0.035765,0.262154,0.097098,0.065031,0.00165535,2.994912,1.987078,0.966814,map,0.0,0.0,0.0,0.0,,,,2.994912,1.987078,0.966814,0.0,0.0,0.923566,0.383439,0.0,-0.0,2.354558,-0.103106,-0.000634,-0.026015,0.095364,0.5,0.05,1.0,0.0,0.0,-0.705949,0.708263,0.0,2.354558,saw,0.03,4,13,17.3378,0,
bread_0006,bread_cutting,135bd015-56eb-4381-8097-dd831d6a4c85,bread_0006,3225735293,apartment,full_system,base_system,True,,,Knife,middle,1,shell_removal,knowledge_base,False,False,ok,cut,primary_success,False,shell_removal,False,False,False,True,pr2,success,RIGHT,knife_right,primary,1,0,0,False,False,False,,-0.153728,-0.05902,-0.03512,0.160858,0.057498,0.042917,0.314585,0.116518,0.078038,0.00286045,2.869467,3.952012,0.966814,map,0.0,0.0,0.0,0.0,,,,2.869467,3.952012,0.966814,0.0,0.0,1.0,0.000639,0.0,-0.0,3.140314,-0.128728,-0.000761,-0.031218,0.07947,0.5,0.05,1.0,0.0,0.0,-0.999999,0.001279,0.0,3.140314,saw,0.03,4,13,40.9497,0,
bread_0007,bread_cutting,135bd015-56eb-4381-8097-dd831d6a4c85,bread_0007,3225735293,apartment,full_system,base_system,True,,,Knife,middle,1,shell_removal,knowledge_base,False,False,ok,cut,primary_success,False,shell_removal,False,False,False,True,pr2,success,RIGHT,knife_right,primary,1,0,0,False,False,False,,-0.153728,-0.05902,-0.03512,0.160858,0.057498,0.042917,0.314585,0.116518,0.078038,0.00286045,2.705774,2.744378,0.966814,map,0.0,0.0,0.0,0.0,,,,2.705774,2.744378,0.966814,0.0,0.0,-0.780199,0.625532,0.0,-0.0,-1.789967,-0.128728,-0.000761,-0.031218,0.07947,0.5,0.05,1.0,0.0,0.0,-0.21742,-0.976078,0.0,-1.789967,saw,0.03,4,13,78.9219,0,
bread_0008,bread_cutting,135bd015-56eb-4381-8097-dd831d6a4c85,bread_0008,3225735293,apartment,full_system,base_system,True,,,Knife,middle,1,shell_removal,knowledge_base,False,False,ok,cut,primary_success,False,shell_removal,False,False,False,True,pr2,success,RIGHT,knife_right,primary,1,0,0,False,False,False,,-0.128106,-0.049183,-0.029267,0.134048,0.047915,0.035765,0.262154,0.097098,0.065031,0.00165535,2.565453,1.387344,0.966814,map,0.0,0.0,0.0,0.0,,,,2.565453,1.387344,0.966814,0.0,0.0,0.888739,0.458414,0.0,-0.0,2.189172,-0.103106,-0.000634,-0.026015,0.095364,0.5,0.05,1.0,0.0,0.0,-0.579712,0.814821,0.0,2.189172,saw,0.03,4,13,49.6086,0,
bread_0009,bread_cutting,135bd015-56eb-4381-8097-dd831d6a4c85,bread_0009,3225735293,apartment,full_system,base_system,True,,,Knife,middle,1,shell_removal,knowledge_base,False,False,ok,cut,primary_success,False,shell_removal,False,False,False,True,pr2,success,RIGHT,knife_right,primary,1,0,0,False,False,False,,-0.128106,-0.049183,-0.029267,0.134048,0.047915,0.035765,0.262154,0.097098,0.065031,0.00165535,2.53187,3.743307,0.966814,map,0.0,0.0,0.0,0.0,,,,2.53187,3.743307,0.966814,0.0,0.0,0.952166,-0.30558,0.0,-0.0,-2.520497,-0.103106,-0.000634,-0.026015,0.095364,0.5,0.05,1.0,0.0,0.0,-0.813241,-0.581927,0.0,-2.520497,saw,0.03,4,13,67.4279,0,
bread_0010,bread_cutting,135bd015-56eb-4381-8097-dd831d6a4c85,bread_0010,3225735293,apartment,full_system,base_system,True,,,Knife,middle,1,shell_removal,knowledge_base,False,False,ok,rotate_object_and_retry,both_arms_failed_before_rotation,False,shell_removal,False,False,False,True,pr2,success,RIGHT,knife_right,after_rotation,3,2,2,True,True,True,z_rotation_180,-0.128106,-0.049183,-0.029267,0.134048,0.047915,0.035765,0.262154,0.097098,0.065031,0.00165535,2.558731,2.363511,0.966814,map,0.0,0.0,0.0,0.0,,,,2.558731,2.363511,0.966814,0.0,0.0,-0.56889,0.822413,0.0,-0.0,-1.210312,-0.103106,-0.000634,-0.026015,0.095364,0.5,0.05,1.0,0.0,0.0,0.352728,-0.935726,0.0,-1.210312,saw,0.03,4,13,362.0693,2,RIGHT primary -> CollisionError (reported as timeout): Timeout reached while waiting for end of motion. | LEFT primary -> CollisionError (reported as timeout): Timeout reached while waiting for end of motion.
bread_0011,bread_cutting,135bd015-56eb-4381-8097-dd831d6a4c85,bread_0011,3225735293,apartment,full_system,base_system,True,,,Knife,middle,1,shell_removal,knowledge_base,False,False,ok,rotate_object_and_retry,both_arms_failed_before_rotation,False,shell_removal,False,False,False,True,pr2,success,RIGHT,knife_right,after_rotation,3,2,2,True,True,True,z_rotation_180,-0.128106,-0.049183,-0.029267,0.134048,0.047915,0.035765,0.262154,0.097098,0.065031,0.00165535,0.291137,3.110162,0.9405,map,0.0,0.0,0.0,0.0,,,,0.291137,3.110162,0.9405,0.0,0.0,-0.55343,0.832895,0.0,-0.0,-1.172955,-0.103106,-0.000634,-0.026015,0.095364,0.5,0.05,1.0,0.0,0.0,0.38743,-0.921899,0.0,-1.172955,saw,0.03,4,13,141.1023,2,RIGHT primary -> CollisionError (reported as timeout): Timeout reached while waiting for end of motion. | LEFT primary -> CollisionError (reported as timeout): Timeout reached while waiting for end of motion.
bread_0012,bread_cutting,135bd015-56eb-4381-8097-dd831d6a4c85,bread_0012,3225735293,apartment,full_system,base_system,True,,,Knife,middle,1,shell_removal,knowledge_base,False,False,prerequisite_requires_human_assistance,request_human_help,knowledge_base_prerequisite_detected,True,shell_removal,False,True,False,False,pr2,failed,,knife_left,after_rotation,4,3,4,True,False,True,z_rotation_180,-0.128106,-0.049183,-0.029267,0.134048,0.047915,0.035765,0.262154,0.097098,0.065031,0.00165535,0.313093,3.435138,0.9405,map,0.0,0.0,0.0,0.0,,,,0.313093,3.435138,0.9405,0.0,0.0,0.941535,-0.336915,0.0,-0.0,-2.454316,-0.103106,-0.000634,-0.026015,0.095364,0.5,0.05,1.0,0.0,0.0,-0.772977,-0.634435,0.0,-2.454316,saw,0.03,4,13,200.7079,4,RIGHT primary -> CollisionError (reported as timeout): Timeout reached while waiting for end of motion. | LEFT primary -> CollisionError (reported as timeout): Timeout reached while waiting for end of motion. | RIGHT after_rotation -> CollisionError (reported as timeout): Timeout reached while waiting for end of motion. | LEFT after_rotation -> CollisionError (reported as timeout): Timeout reached while waiting for end of motion.
bread_0013,bread_cutting,135bd015-56eb-4381-8097-dd831d6a4c85,bread_0013,3225735293,apartment,full_system,base_system,True,,,Knife,middle,1,shell_removal,knowledge_base,False,False,ok,cut,primary_success,False,shell_removal,False,False,False,True,pr2,success,RIGHT,knife_right,primary,1,0,0,False,False,False,,-0.128106,-0.049183,-0.029267,0.134048,0.047915,0.035765,0.262154,0.097098,0.065031,0.00165535,5.1314,4.431363,0.742643,map,0.0,0.0,0.0,0.0,,,,5.1314,4.431363,0.742643,0.0,0.0,0.882768,0.469809,0.0,-0.0,2.163445,-0.103106,-0.000634,-0.026015,0.095364,0.5,0.05,1.0,0.0,0.0,-0.55856,0.829464,0.0,2.163445,saw,0.03,4,13,10.0255,0,
bread_0014,bread_cutting,135bd015-56eb-4381-8097-dd831d6a4c85,bread_0014,3225735293,apartment,full_system,base_system,True,,,Knife,middle,1,shell_removal,knowledge_base,False,False,ok,cut,primary_success,False,shell_removal,False,False,False,True,pr2,success,RIGHT,knife_right,primary,1,0,0,False,False,False,,-0.128106,-0.049183,-0.029267,0.134048,0.047915,0.035765,0.262154,0.097098,0.065031,0.00165535,4.84394,3.510799,0.742643,map,0.0,0.0,0.0,0.0,,,,4.84394,3.510799,0.742643,0.0,0.0,0.432531,0.901619,0.0,-0.0,0.894597,-0.103106,-0.000634,-0.026015,0.095364,0.5,0.05,1.0,0.0,0.0,0.625833,0.779957,0.0,0.894597,saw,0.03,4,13,34.3308,0,
bread_0015,bread_cutting,135bd015-56eb-4381-8097-dd831d6a4c85,bread_0015,3225735293,apartment,full_system,base_system,True,,,Knife,middle,1,shell_removal,knowledge_base,False,False,ok,cut,primary_success,False,shell_removal,False,False,False,True,pr2,success,RIGHT,knife_right,primary,1,0,0,False,False,False,,-0.128106,-0.049183,-0.029267,0.134048,0.047915,0.035765,0.262154,0.097098,0.065031,0.00165535,5.116909,3.8842,0.742643,map,0.0,0.0,0.0,0.0,,,,5.116909,3.8842,0.742643,0.0,0.0,-0.105564,0.994412,0.0,-0.0,-0.211523,-0.103106,-0.000634,-0.026015,0.095364,0.5,0.05,1.0,0.0,0.0,0.977712,-0.209949,0.0,-0.211523,saw,0.03,4,13,20.8056,0,
bread_0016,bread_cutting,135bd015-56eb-4381-8097-dd831d6a4c85,bread_0016,3225735293,apartment,full_system,base_system,True,,,Knife,middle,1,shell_removal,knowledge_base,False,False,ok,cut,primary_success,False,shell_removal,False,False,False,True,pr2,success,RIGHT,knife_right,primary,1,0,0,False,False,False,,-0.153728,-0.05902,-0.03512,0.160858,0.057498,0.042917,0.314585,0.116518,0.078038,0.00286045,4.879717,4.163137,0.742643,map,0.0,0.0,0.0,0.0,,,,4.879717,4.163137,0.742643,0.0,0.0,0.53846,0.842651,0.0,-0.0,1.137216,-0.128728,-0.000761,-0.031218,0.07947,0.5,0.05,1.0,0.0,0.0,0.420123,0.907467,0.0,1.137216,saw,0.03,4,13,53.3923,0,
bread_0017,bread_cutting,135bd015-56eb-4381-8097-dd831d6a4c85,bread_0017,3225735293,apartment,full_system,base_system,True,,,Knife,middle,1,shell_removal,knowledge_base,False,False,ok,retry_with_left_arm,right_arm_failed,False,shell_removal,False,False,False,True,pr2,success,LEFT,knife_left,primary,2,1,1,True,True,False,,-0.128106,-0.049183,-0.029267,0.134048,0.047915,0.035765,0.262154,0.097098,0.065031,0.00165535,5.151145,3.486719,0.742643,map,0.0,0.0,0.0,0.0,,,,5.151145,3.486719,0.742643,0.0,0.0,0.971873,-0.235505,0.0,-0.0,-2.666116,-0.103106,-0.000634,-0.026015,0.095364,0.5,0.05,1.0,0.0,0.0,-0.889074,-0.457763,0.0,-2.666116,saw,0.03,4,13,220.8283,1,RIGHT primary -> CollisionError (reported as timeout): Timeout reached while waiting for end of motion.
bread_0001,bread_cutting,1a939444-d9b7-49b9-8b61-64771a6c0b50,bread_0001,2932977590,isr,full_system,base_system,True,,,Knife,middle,1,shell_removal,knowledge_base,False,False,prerequisite_requires_human_assistance,request_human_help,knowledge_base_prerequisite_detected,True,shell_removal,False,True,False,False,pr2,failed,,knife_left,after_rotation,4,3,4,True,False,True,z_rotation_180,-0.179349,-0.068857,-0.040973,0.187667,0.067081,0.05007,0.367016,0.135937,0.091044,0.00454229,-2.824299,-2.483053,0.42,map,0.0,0.0,0.0,0.0,,,,-2.824299,-2.483053,0.42,0.0,0.0,0.898606,0.438757,0.0,-0.0,2.233162,-0.154349,-0.000888,-0.036421,0.068117,0.5,0.05,1.0,0.0,0.0,-0.614984,0.78854,0.0,2.233162,saw,0.03,4,13,68.1195,4,RIGHT primary -> CollisionError (reported as timeout): Timeout reached while waiting for end of motion. | LEFT primary -> CollisionError (reported as timeout): Timeout reached while waiting for end of motion. | RIGHT after_rotation -> CollisionError (reported as timeout): Timeout reached while waiting for end of motion. | LEFT after_rotation -> CollisionError (reported as timeout): Timeout reached while waiting for end of motion.
